"id","alias","name","image_url","is_closed","url","review_count","rating","price","phone","display_phone","distance","coordinates.latitude","coordinates.longitude","location.address1","location.address2","location.address3","location.city","location.zip_code","location.country","location.state","alias1","category"
"H4jJ7XB3CetIr1pg56CczQ","levain-bakery-new-york","Levain Bakery","https://s3-media2.fl.yelpcdn.com/bphoto/9uUdfbEHUB4D-4s_RVA9zw/o.jpg",FALSE,"https://www.yelp.com/biz/levain-bakery-new-york?adjust_creative=seK3nYThXCT622oUlqHkLQ&utm_campaign=yelp_api_v3&utm_medium=api_v3_business_search&utm_source=seK3nYThXCT622oUlqHkLQ",7343,4.5,"$$","+12128746080","(212) 874-6080",8367.19712306029,40.7799404643263,-73.980282552649,"167 W 74th St","","","New York","10023","US","NY","bakeries","Bakeries"
"xEnNFXtMLDF5kZDxfaCJgA","the-halal-guys-new-york-2","The Halal Guys","https://s3-media1.fl.yelpcdn.com/bphoto/24lb-VP2zVySsY9cq45ETw/o.jpg",FALSE,"https://www.yelp.com/biz/the-halal-guys-new-york-2?adjust_creative=seK3nYThXCT622oUlqHkLQ&utm_campaign=yelp_api_v3&utm_medium=api_v3_business_search&utm_source=seK3nYThXCT622oUlqHkLQ",9121,4,"$","","",6388.83958943291,40.7617559582706,-73.979229927063,"W 53rd St 6th Ave",NA,"","New York","10019","US","NY","foodstands","Food Stands"
"xEnNFXtMLDF5kZDxfaCJgA","the-halal-guys-new-york-2","The Halal Guys","https://s3-media1.fl.yelpcdn.com/bphoto/24lb-VP2zVySsY9cq45ETw/o.jpg",FALSE,"https://www.yelp.com/biz/the-halal-guys-new-york-2?adjust_creative=seK3nYThXCT622oUlqHkLQ&utm_campaign=yelp_api_v3&utm_medium=api_v3_business_search&utm_source=seK3nYThXCT622oUlqHkLQ",9121,4,"$","","",6388.83958943291,40.7617559582706,-73.979229927063,"W 53rd St 6th Ave",NA,"","New York","10019","US","NY","mideastern","Middle Eastern"
"xEnNFXtMLDF5kZDxfaCJgA","the-halal-guys-new-york-2","The Halal Guys","https://s3-media1.fl.yelpcdn.com/bphoto/24lb-VP2zVySsY9cq45ETw/o.jpg",FALSE,"https://www.yelp.com/biz/the-halal-guys-new-york-2?adjust_creative=seK3nYThXCT622oUlqHkLQ&utm_campaign=yelp_api_v3&utm_medium=api_v3_business_search&utm_source=seK3nYThXCT622oUlqHkLQ",9121,4,"$","","",6388.83958943291,40.7617559582706,-73.979229927063,"W 53rd St 6th Ave",NA,"","New York","10019","US","NY","halal","Halal"
"44SY464xDHbvOcjDzRbKkQ","ippudo-ny-new-york-7","Ippudo NY","https://s3-media1.fl.yelpcdn.com/bphoto/zF3EgqHCk7zBUwD2B3WTEA/o.jpg",FALSE,"https://www.yelp.com/biz/ippudo-ny-new-york-7?adjust_creative=seK3nYThXCT622oUlqHkLQ&utm_campaign=yelp_api_v3&utm_medium=api_v3_business_search&utm_source=seK3nYThXCT622oUlqHkLQ",9672,4,"$$","","",2855.84485141638,40.73092,-73.99015,"65 4th Ave","","","New York","10003","US","NY","ramen","Ramen"
"V7lXZKBDzScDeGB8JmnzSA","katzs-delicatessen-new-york","Katz's Delicatessen","https://s3-media1.fl.yelpcdn.com/bphoto/B6xNx79cSE7bFxqERBYOhg/o.jpg",FALSE,"https://www.yelp.com/biz/katzs-delicatessen-new-york?adjust_creative=seK3nYThXCT622oUlqHkLQ&utm_campaign=yelp_api_v3&utm_medium=api_v3_business_search&utm_source=seK3nYThXCT622oUlqHkLQ",10767,4,"$$","+12122542246","(212) 254-2246",1947.37400451414,40.72222,-73.98751,"205 E Houston St","","","New York","10003","US","NY","delis","Delis"
"V7lXZKBDzScDeGB8JmnzSA","katzs-delicatessen-new-york","Katz's Delicatessen","https://s3-media1.fl.yelpcdn.com/bphoto/B6xNx79cSE7bFxqERBYOhg/o.jpg",FALSE,"https://www.yelp.com/biz/katzs-delicatessen-new-york?adjust_creative=seK3nYThXCT622oUlqHkLQ&utm_campaign=yelp_api_v3&utm_medium=api_v3_business_search&utm_source=seK3nYThXCT622oUlqHkLQ",10767,4,"$$","+12122542246","(212) 254-2246",1947.37400451414,40.72222,-73.98751,"205 E Houston St","","","New York","10003","US","NY","sandwiches","Sandwiches"
"V7lXZKBDzScDeGB8JmnzSA","katzs-delicatessen-new-york","Katz's Delicatessen","https://s3-media1.fl.yelpcdn.com/bphoto/B6xNx79cSE7bFxqERBYOhg/o.jpg",FALSE,"https://www.yelp.com/biz/katzs-delicatessen-new-york?adjust_creative=seK3nYThXCT622oUlqHkLQ&utm_campaign=yelp_api_v3&utm_medium=api_v3_business_search&utm_source=seK3nYThXCT622oUlqHkLQ",10767,4,"$$","+12122542246","(212) 254-2246",1947.37400451414,40.72222,-73.98751,"205 E Houston St","","","New York","10003","US","NY","catering","Caterers"
"jVncyqXwlx_D9f2xZn05tg","the-metropolitan-museum-of-art-new-york-3","The Metropolitan Museum of Art","https://s3-media1.fl.yelpcdn.com/bphoto/IYGL2yl2Pu6P5wj3rKI_kw/o.jpg",FALSE,"https://www.yelp.com/biz/the-metropolitan-museum-of-art-new-york-3?adjust_creative=seK3nYThXCT622oUlqHkLQ&utm_campaign=yelp_api_v3&utm_medium=api_v3_business_search&utm_source=seK3nYThXCT622oUlqHkLQ",2667,4.5,NA,"+12125357710","(212) 535-7710",8623.2495062311,40.779254271604,-73.9628841731528,"1000 5th Ave","","","New York","10028","US","NY","artmuseums","Art Museums"
"xOw4aafJRji9XomGunlvcQ","central-park-new-york","Central Park","https://s3-media2.fl.yelpcdn.com/bphoto/a_T1R7oNyM-5Vtcx5ZiyPw/o.jpg",FALSE,"https://www.yelp.com/biz/central-park-new-york?adjust_creative=seK3nYThXCT622oUlqHkLQ&utm_campaign=yelp_api_v3&utm_medium=api_v3_business_search&utm_source=seK3nYThXCT622oUlqHkLQ",2275,5,NA,"+12123106600","(212) 310-6600",8893.83585557141,40.782418740809,-73.9656022837641,"14 E 60th St","","Central Park Conservancy","New York","10022","US","NY","parks","Parks"
"jnEv25Y2DosTq2sNnvmC9g","los-tacos-no-1-new-york","Los Tacos No.1","https://s3-media2.fl.yelpcdn.com/bphoto/FU44TYl3PzXsE06G4W5aog/o.jpg",FALSE,"https://www.yelp.com/biz/los-tacos-no-1-new-york?adjust_creative=seK3nYThXCT622oUlqHkLQ&utm_campaign=yelp_api_v3&utm_medium=api_v3_business_search&utm_source=seK3nYThXCT622oUlqHkLQ",2593,4.5,"$","+12122560343","(212) 256-0343",4244.35869925055,40.7425547,-74.0060838,"75 9th Ave","","","New York","10011","US","NY","tacos","Tacos"
"WHRHK3S1mQc3PmhwsGRvbw","bibble-and-sip-new-york-2","Bibble & Sip","https://s3-media2.fl.yelpcdn.com/bphoto/b4_G7Dc2l1hpHlTjH48kuw/o.jpg",FALSE,"https://www.yelp.com/biz/bibble-and-sip-new-york-2?adjust_creative=seK3nYThXCT622oUlqHkLQ&utm_campaign=yelp_api_v3&utm_medium=api_v3_business_search&utm_source=seK3nYThXCT622oUlqHkLQ",4213,4.5,"$","+16466495116","(646) 649-5116",6427.92125215535,40.76282,-73.98518,"253 W 51st St","","","New York","10019","US","NY","coffee","Coffee & Tea"
"WHRHK3S1mQc3PmhwsGRvbw","bibble-and-sip-new-york-2","Bibble & Sip","https://s3-media2.fl.yelpcdn.com/bphoto/b4_G7Dc2l1hpHlTjH48kuw/o.jpg",FALSE,"https://www.yelp.com/biz/bibble-and-sip-new-york-2?adjust_creative=seK3nYThXCT622oUlqHkLQ&utm_campaign=yelp_api_v3&utm_medium=api_v3_business_search&utm_source=seK3nYThXCT622oUlqHkLQ",4213,4.5,"$","+16466495116","(646) 649-5116",6427.92125215535,40.76282,-73.98518,"253 W 51st St","","","New York","10019","US","NY","bakeries","Bakeries"
"UA2M9QFZghe-9th2KwLoWQ","burger-and-lobster-new-york-4","Burger & Lobster","https://s3-media3.fl.yelpcdn.com/bphoto/1rHd7F4zztAsScwzM0vDmw/o.jpg",FALSE,"https://www.yelp.com/biz/burger-and-lobster-new-york-4?adjust_creative=seK3nYThXCT622oUlqHkLQ&utm_campaign=yelp_api_v3&utm_medium=api_v3_business_search&utm_source=seK3nYThXCT622oUlqHkLQ",4880,4,"$$","+16468337532","(646) 833-7532",3852.2188529432,40.74007,-73.99344,"39 W 19th St","","","New York","10011","US","NY","seafood","Seafood"
"UA2M9QFZghe-9th2KwLoWQ","burger-and-lobster-new-york-4","Burger & Lobster","https://s3-media3.fl.yelpcdn.com/bphoto/1rHd7F4zztAsScwzM0vDmw/o.jpg",FALSE,"https://www.yelp.com/biz/burger-and-lobster-new-york-4?adjust_creative=seK3nYThXCT622oUlqHkLQ&utm_campaign=yelp_api_v3&utm_medium=api_v3_business_search&utm_source=seK3nYThXCT622oUlqHkLQ",4880,4,"$$","+16468337532","(646) 833-7532",3852.2188529432,40.74007,-73.99344,"39 W 19th St","","","New York","10011","US","NY","burgers","Burgers"
"UA2M9QFZghe-9th2KwLoWQ","burger-and-lobster-new-york-4","Burger & Lobster","https://s3-media3.fl.yelpcdn.com/bphoto/1rHd7F4zztAsScwzM0vDmw/o.jpg",FALSE,"https://www.yelp.com/biz/burger-and-lobster-new-york-4?adjust_creative=seK3nYThXCT622oUlqHkLQ&utm_campaign=yelp_api_v3&utm_medium=api_v3_business_search&utm_source=seK3nYThXCT622oUlqHkLQ",4880,4,"$$","+16468337532","(646) 833-7532",3852.2188529432,40.74007,-73.99344,"39 W 19th St","","","New York","10011","US","NY","newamerican","American (New)"
"veq1Bl1DW3UWMekZJUsG1Q","gramercy-tavern-new-york","Gramercy Tavern","https://s3-media4.fl.yelpcdn.com/bphoto/1C20qnil3QUWRl3om2gOFg/o.jpg",FALSE,"https://www.yelp.com/biz/gramercy-tavern-new-york?adjust_creative=seK3nYThXCT622oUlqHkLQ&utm_campaign=yelp_api_v3&utm_medium=api_v3_business_search&utm_source=seK3nYThXCT622oUlqHkLQ",2717,4.5,"$$$$","+12124770777","(212) 477-0777",3711.74390582856,40.738527,-73.988417,"42 E 20th St","","","New York","10003","US","NY","newamerican","American (New)"
"JION8hhg7q6zyayHYwhxIw","the-high-line-new-york","The High Line","https://s3-media1.fl.yelpcdn.com/bphoto/Gujj42hSygQGqua-R4iYiQ/o.jpg",FALSE,"https://www.yelp.com/biz/the-high-line-new-york?adjust_creative=seK3nYThXCT622oUlqHkLQ&utm_campaign=yelp_api_v3&utm_medium=api_v3_business_search&utm_source=seK3nYThXCT622oUlqHkLQ",2212,4.5,NA,"+12122069922","(212) 206-9922",4813.59888356738,40.7479831752801,-74.0048906107511,"820 Washington St","","","New York","10014","US","NY","parks","Parks"
"JION8hhg7q6zyayHYwhxIw","the-high-line-new-york","The High Line","https://s3-media1.fl.yelpcdn.com/bphoto/Gujj42hSygQGqua-R4iYiQ/o.jpg",FALSE,"https://www.yelp.com/biz/the-high-line-new-york?adjust_creative=seK3nYThXCT622oUlqHkLQ&utm_campaign=yelp_api_v3&utm_medium=api_v3_business_search&utm_source=seK3nYThXCT622oUlqHkLQ",2212,4.5,NA,"+12122069922","(212) 206-9922",4813.59888356738,40.7479831752801,-74.0048906107511,"820 Washington St","","","New York","10014","US","NY","localflavor","Local Flavor"
"lWOkeS-wV4no8qqA9OwwEg","doughnut-plant-new-york-6","Doughnut Plant","https://s3-media3.fl.yelpcdn.com/bphoto/JpLMXFWyvpstlC9__dlJKA/o.jpg",FALSE,"https://www.yelp.com/biz/doughnut-plant-new-york-6?adjust_creative=seK3nYThXCT622oUlqHkLQ&utm_campaign=yelp_api_v3&utm_medium=api_v3_business_search&utm_source=seK3nYThXCT622oUlqHkLQ",3105,4.5,"$$","+12125053700","(212) 505-3700",1308.38795155788,40.7163944930004,-73.9886098620298,"379 Grand St","","","New York","10002","US","NY","donuts","Donuts"
"lWOkeS-wV4no8qqA9OwwEg","doughnut-plant-new-york-6","Doughnut Plant","https://s3-media3.fl.yelpcdn.com/bphoto/JpLMXFWyvpstlC9__dlJKA/o.jpg",FALSE,"https://www.yelp.com/biz/doughnut-plant-new-york-6?adjust_creative=seK3nYThXCT622oUlqHkLQ&utm_campaign=yelp_api_v3&utm_medium=api_v3_business_search&utm_source=seK3nYThXCT622oUlqHkLQ",3105,4.5,"$$","+12125053700","(212) 505-3700",1308.38795155788,40.7163944930004,-73.9886098620298,"379 Grand St","","","New York","10002","US","NY","coffee","Coffee & Tea"
"4yPqqJDJOQX69gC66YUDkA","peter-luger-brooklyn-2","Peter Luger","https://s3-media2.fl.yelpcdn.com/bphoto/DnReRUkXRtsmKycQEYl0pg/o.jpg",FALSE,"https://www.yelp.com/biz/peter-luger-brooklyn-2?adjust_creative=seK3nYThXCT622oUlqHkLQ&utm_campaign=yelp_api_v3&utm_medium=api_v3_business_search&utm_source=seK3nYThXCT622oUlqHkLQ",5235,4,"$$$$","+17183877400","(718) 387-7400",2728.01692152282,40.709945,-73.962478,"178 Broadway","","","Brooklyn","11211","US","NY","steak","Steakhouses"
"j1S3NUrkB3BVT49n_e76NQ","best-bagel-and-coffee-new-york","Best Bagel & Coffee","https://s3-media2.fl.yelpcdn.com/bphoto/9-8DVzhwfzFS5GUCq3O6NA/o.jpg",FALSE,"https://www.yelp.com/biz/best-bagel-and-coffee-new-york?adjust_creative=seK3nYThXCT622oUlqHkLQ&utm_campaign=yelp_api_v3&utm_medium=api_v3_business_search&utm_source=seK3nYThXCT622oUlqHkLQ",2723,4.5,"$","+12125644409","(212) 564-4409",5213.53150097613,40.7522683,-73.9910861,"225 W 35th St","","","New York","10001","US","NY","bagels","Bagels"
"j1S3NUrkB3BVT49n_e76NQ","best-bagel-and-coffee-new-york","Best Bagel & Coffee","https://s3-media2.fl.yelpcdn.com/bphoto/9-8DVzhwfzFS5GUCq3O6NA/o.jpg",FALSE,"https://www.yelp.com/biz/best-bagel-and-coffee-new-york?adjust_creative=seK3nYThXCT622oUlqHkLQ&utm_campaign=yelp_api_v3&utm_medium=api_v3_business_search&utm_source=seK3nYThXCT622oUlqHkLQ",2723,4.5,"$","+12125644409","(212) 564-4409",5213.53150097613,40.7522683,-73.9910861,"225 W 35th St","","","New York","10001","US","NY","coffee","Coffee & Tea"
"j1S3NUrkB3BVT49n_e76NQ","best-bagel-and-coffee-new-york","Best Bagel & Coffee","https://s3-media2.fl.yelpcdn.com/bphoto/9-8DVzhwfzFS5GUCq3O6NA/o.jpg",FALSE,"https://www.yelp.com/biz/best-bagel-and-coffee-new-york?adjust_creative=seK3nYThXCT622oUlqHkLQ&utm_campaign=yelp_api_v3&utm_medium=api_v3_business_search&utm_source=seK3nYThXCT622oUlqHkLQ",2723,4.5,"$","+12125644409","(212) 564-4409",5213.53150097613,40.7522683,-73.9910861,"225 W 35th St","","","New York","10001","US","NY","breakfast_brunch","Breakfast & Brunch"
"FEVQpbOPOwAPNIgO7D3xxw","shake-shack-new-york-2","Shake Shack","https://s3-media3.fl.yelpcdn.com/bphoto/J0UoRJKdaMl0EPdgxYIlKw/o.jpg",FALSE,"https://www.yelp.com/biz/shake-shack-new-york-2?adjust_creative=seK3nYThXCT622oUlqHkLQ&utm_campaign=yelp_api_v3&utm_medium=api_v3_business_search&utm_source=seK3nYThXCT622oUlqHkLQ",5508,4,"$$","+12128896600","(212) 889-6600",4031.40249512782,40.7414000197233,-73.98815019045,"Madison Square Park","","E 23rd St & Madison Ave","New York","10010","US","NY","burgers","Burgers"
"FEVQpbOPOwAPNIgO7D3xxw","shake-shack-new-york-2","Shake Shack","https://s3-media3.fl.yelpcdn.com/bphoto/J0UoRJKdaMl0EPdgxYIlKw/o.jpg",FALSE,"https://www.yelp.com/biz/shake-shack-new-york-2?adjust_creative=seK3nYThXCT622oUlqHkLQ&utm_campaign=yelp_api_v3&utm_medium=api_v3_business_search&utm_source=seK3nYThXCT622oUlqHkLQ",5508,4,"$$","+12128896600","(212) 889-6600",4031.40249512782,40.7414000197233,-73.98815019045,"Madison Square Park","","E 23rd St & Madison Ave","New York","10010","US","NY","foodstands","Food Stands"
"FEVQpbOPOwAPNIgO7D3xxw","shake-shack-new-york-2","Shake Shack","https://s3-media3.fl.yelpcdn.com/bphoto/J0UoRJKdaMl0EPdgxYIlKw/o.jpg",FALSE,"https://www.yelp.com/biz/shake-shack-new-york-2?adjust_creative=seK3nYThXCT622oUlqHkLQ&utm_campaign=yelp_api_v3&utm_medium=api_v3_business_search&utm_source=seK3nYThXCT622oUlqHkLQ",5508,4,"$$","+12128896600","(212) 889-6600",4031.40249512782,40.7414000197233,-73.98815019045,"Madison Square Park","","E 23rd St & Madison Ave","New York","10010","US","NY","icecream","Ice Cream & Frozen Yogurt"
"kViIWJFfAfWPpJOwAXBKGA","national-september-11-memorial-museum-new-york","National September 11 Memorial Museum","https://s3-media2.fl.yelpcdn.com/bphoto/gFr_zDiUm8QJ-4gkG8v6Uw/o.jpg",FALSE,"https://www.yelp.com/biz/national-september-11-memorial-museum-new-york?adjust_creative=seK3nYThXCT622oUlqHkLQ&utm_campaign=yelp_api_v3&utm_medium=api_v3_business_search&utm_source=seK3nYThXCT622oUlqHkLQ",1333,4.5,NA,"+12122665211","(212) 266-5211",1670.40824404031,40.71144,-74.01301,"180 Greenwich St","","","New York","10007","US","NY","museums","Museums"
"jjJc_CrkB2HodEinB6cWww","lovemama-new-york","LoveMama","https://s3-media1.fl.yelpcdn.com/bphoto/bLlFKTlVuLfmF-lIDGIjZA/o.jpg",FALSE,"https://www.yelp.com/biz/lovemama-new-york?adjust_creative=seK3nYThXCT622oUlqHkLQ&utm_campaign=yelp_api_v3&utm_medium=api_v3_business_search&utm_source=seK3nYThXCT622oUlqHkLQ",4013,4,"$$","+12122545370","(212) 254-5370",2858.77294100083,40.7303859,-73.9860613,"174 2nd Ave","","","New York","10003","US","NY","thai","Thai"
"jjJc_CrkB2HodEinB6cWww","lovemama-new-york","LoveMama","https://s3-media1.fl.yelpcdn.com/bphoto/bLlFKTlVuLfmF-lIDGIjZA/o.jpg",FALSE,"https://www.yelp.com/biz/lovemama-new-york?adjust_creative=seK3nYThXCT622oUlqHkLQ&utm_campaign=yelp_api_v3&utm_medium=api_v3_business_search&utm_source=seK3nYThXCT622oUlqHkLQ",4013,4,"$$","+12122545370","(212) 254-5370",2858.77294100083,40.7303859,-73.9860613,"174 2nd Ave","","","New York","10003","US","NY","malaysian","Malaysian"
"jjJc_CrkB2HodEinB6cWww","lovemama-new-york","LoveMama","https://s3-media1.fl.yelpcdn.com/bphoto/bLlFKTlVuLfmF-lIDGIjZA/o.jpg",FALSE,"https://www.yelp.com/biz/lovemama-new-york?adjust_creative=seK3nYThXCT622oUlqHkLQ&utm_campaign=yelp_api_v3&utm_medium=api_v3_business_search&utm_source=seK3nYThXCT622oUlqHkLQ",4013,4,"$$","+12122545370","(212) 254-5370",2858.77294100083,40.7303859,-73.9860613,"174 2nd Ave","","","New York","10003","US","NY","vietnamese","Vietnamese"
"vRrVSB-LegwUwIxpkeRVtQ","le-bernardin-new-york","Le Bernardin","https://s3-media2.fl.yelpcdn.com/bphoto/G0wZ6h5KaQG2gJkk8uOkLQ/o.jpg",FALSE,"https://www.yelp.com/biz/le-bernardin-new-york?adjust_creative=seK3nYThXCT622oUlqHkLQ&utm_campaign=yelp_api_v3&utm_medium=api_v3_business_search&utm_source=seK3nYThXCT622oUlqHkLQ",2369,4.5,"$$$$","+12125541515","(212) 554-1515",6328.07179784047,40.761557,-73.981763,"155 W 51st St","","The Equitable Bldg","New York","10019","US","NY","french","French"
"vRrVSB-LegwUwIxpkeRVtQ","le-bernardin-new-york","Le Bernardin","https://s3-media2.fl.yelpcdn.com/bphoto/G0wZ6h5KaQG2gJkk8uOkLQ/o.jpg",FALSE,"https://www.yelp.com/biz/le-bernardin-new-york?adjust_creative=seK3nYThXCT622oUlqHkLQ&utm_campaign=yelp_api_v3&utm_medium=api_v3_business_search&utm_source=seK3nYThXCT622oUlqHkLQ",2369,4.5,"$$$$","+12125541515","(212) 554-1515",6328.07179784047,40.761557,-73.981763,"155 W 51st St","","The Equitable Bldg","New York","10019","US","NY","lounges","Lounges"
"zj8Lq1T8KIC5zwFief15jg","prince-street-pizza-new-york-2","Prince Street Pizza","https://s3-media3.fl.yelpcdn.com/bphoto/ZAukOyv530w4KjOHC5YY1w/o.jpg",FALSE,"https://www.yelp.com/biz/prince-street-pizza-new-york-2?adjust_creative=seK3nYThXCT622oUlqHkLQ&utm_campaign=yelp_api_v3&utm_medium=api_v3_business_search&utm_source=seK3nYThXCT622oUlqHkLQ",2564,4.5,"$","+12129664100","(212) 966-4100",1941.96381725382,40.7229087705545,-73.9944863319397,"27 Prince St",NA,"","New York","10012","US","NY","pizza","Pizza"
"zj8Lq1T8KIC5zwFief15jg","prince-street-pizza-new-york-2","Prince Street Pizza","https://s3-media3.fl.yelpcdn.com/bphoto/ZAukOyv530w4KjOHC5YY1w/o.jpg",FALSE,"https://www.yelp.com/biz/prince-street-pizza-new-york-2?adjust_creative=seK3nYThXCT622oUlqHkLQ&utm_campaign=yelp_api_v3&utm_medium=api_v3_business_search&utm_source=seK3nYThXCT622oUlqHkLQ",2564,4.5,"$","+12129664100","(212) 966-4100",1941.96381725382,40.7229087705545,-73.9944863319397,"27 Prince St",NA,"","New York","10012","US","NY","italian","Italian"
"nU4XBdvxDABXqZ6CnB8Dig","clinton-street-baking-company-new-york-5","Clinton Street Baking Company","https://s3-media1.fl.yelpcdn.com/bphoto/DWHdizJ9bKbXN4yq6nbwAA/o.jpg",FALSE,"https://www.yelp.com/biz/clinton-street-baking-company-new-york-5?adjust_creative=seK3nYThXCT622oUlqHkLQ&utm_campaign=yelp_api_v3&utm_medium=api_v3_business_search&utm_source=seK3nYThXCT622oUlqHkLQ",4532,4,"$$","+16466026263","(646) 602-6263",1950.28282963889,40.721128,-73.983933,"4 Clinton St","","","New York","10002","US","NY","bakeries","Bakeries"
"nU4XBdvxDABXqZ6CnB8Dig","clinton-street-baking-company-new-york-5","Clinton Street Baking Company","https://s3-media1.fl.yelpcdn.com/bphoto/DWHdizJ9bKbXN4yq6nbwAA/o.jpg",FALSE,"https://www.yelp.com/biz/clinton-street-baking-company-new-york-5?adjust_creative=seK3nYThXCT622oUlqHkLQ&utm_campaign=yelp_api_v3&utm_medium=api_v3_business_search&utm_source=seK3nYThXCT622oUlqHkLQ",4532,4,"$$","+16466026263","(646) 602-6263",1950.28282963889,40.721128,-73.983933,"4 Clinton St","","","New York","10002","US","NY","breakfast_brunch","Breakfast & Brunch"
"nU4XBdvxDABXqZ6CnB8Dig","clinton-street-baking-company-new-york-5","Clinton Street Baking Company","https://s3-media1.fl.yelpcdn.com/bphoto/DWHdizJ9bKbXN4yq6nbwAA/o.jpg",FALSE,"https://www.yelp.com/biz/clinton-street-baking-company-new-york-5?adjust_creative=seK3nYThXCT622oUlqHkLQ&utm_campaign=yelp_api_v3&utm_medium=api_v3_business_search&utm_source=seK3nYThXCT622oUlqHkLQ",4532,4,"$$","+16466026263","(646) 602-6263",1950.28282963889,40.721128,-73.983933,"4 Clinton St","","","New York","10002","US","NY","tradamerican","American (Traditional)"
"mvn2XFJfIPNAlvsy-arzkA","brooklyn-bridge-brooklyn","Brooklyn Bridge","https://s3-media3.fl.yelpcdn.com/bphoto/1F5Xl0Qn5DW8nzaelPSwMA/o.jpg",FALSE,"https://www.yelp.com/biz/brooklyn-bridge-brooklyn?adjust_creative=seK3nYThXCT622oUlqHkLQ&utm_campaign=yelp_api_v3&utm_medium=api_v3_business_search&utm_source=seK3nYThXCT622oUlqHkLQ",1286,4.5,NA,"+17187246434","(718) 724-6434",208.268971973789,40.7059677364821,-73.9966657489186,"334 Furman St",NA,"","Brooklyn","11201","US","NY","landmarks","Landmarks & Historical Buildings"
"UGECJrPSWy0n7PXykBBWAQ","two-little-red-hens-new-york-4","Two Little Red Hens","https://s3-media3.fl.yelpcdn.com/bphoto/gF02Oh2PfE2OS7Nz3MqV4g/o.jpg",FALSE,"https://www.yelp.com/biz/two-little-red-hens-new-york-4?adjust_creative=seK3nYThXCT622oUlqHkLQ&utm_campaign=yelp_api_v3&utm_medium=api_v3_business_search&utm_source=seK3nYThXCT622oUlqHkLQ",2385,4.5,"$$","+12124520476","(212) 452-0476",8778.87502864075,40.777528,-73.9517869,"1652 2nd Ave",NA,"","New York","10028","US","NY","bakeries","Bakeries"
"UGECJrPSWy0n7PXykBBWAQ","two-little-red-hens-new-york-4","Two Little Red Hens","https://s3-media3.fl.yelpcdn.com/bphoto/gF02Oh2PfE2OS7Nz3MqV4g/o.jpg",FALSE,"https://www.yelp.com/biz/two-little-red-hens-new-york-4?adjust_creative=seK3nYThXCT622oUlqHkLQ&utm_campaign=yelp_api_v3&utm_medium=api_v3_business_search&utm_source=seK3nYThXCT622oUlqHkLQ",2385,4.5,"$$","+12124520476","(212) 452-0476",8778.87502864075,40.777528,-73.9517869,"1652 2nd Ave",NA,"","New York","10028","US","NY","desserts","Desserts"
"UGECJrPSWy0n7PXykBBWAQ","two-little-red-hens-new-york-4","Two Little Red Hens","https://s3-media3.fl.yelpcdn.com/bphoto/gF02Oh2PfE2OS7Nz3MqV4g/o.jpg",FALSE,"https://www.yelp.com/biz/two-little-red-hens-new-york-4?adjust_creative=seK3nYThXCT622oUlqHkLQ&utm_campaign=yelp_api_v3&utm_medium=api_v3_business_search&utm_source=seK3nYThXCT622oUlqHkLQ",2385,4.5,"$$","+12124520476","(212) 452-0476",8778.87502864075,40.777528,-73.9517869,"1652 2nd Ave",NA,"","New York","10028","US","NY","coffee","Coffee & Tea"
"nI1UYDCYUTt23TpGxqnLKg","buddakan-new-york","Buddakan","https://s3-media4.fl.yelpcdn.com/bphoto/Avw19VU35-FZLen3nl9gYw/o.jpg",FALSE,"https://www.yelp.com/biz/buddakan-new-york?adjust_creative=seK3nYThXCT622oUlqHkLQ&utm_campaign=yelp_api_v3&utm_medium=api_v3_business_search&utm_source=seK3nYThXCT622oUlqHkLQ",3709,4,"$$$","+12129896699","(212) 989-6699",4190.07929433554,40.7422762672197,-74.0048000961542,"75 9th Ave",NA,"","New York","10011","US","NY","chinese","Chinese"
"nI1UYDCYUTt23TpGxqnLKg","buddakan-new-york","Buddakan","https://s3-media4.fl.yelpcdn.com/bphoto/Avw19VU35-FZLen3nl9gYw/o.jpg",FALSE,"https://www.yelp.com/biz/buddakan-new-york?adjust_creative=seK3nYThXCT622oUlqHkLQ&utm_campaign=yelp_api_v3&utm_medium=api_v3_business_search&utm_source=seK3nYThXCT622oUlqHkLQ",3709,4,"$$$","+12129896699","(212) 989-6699",4190.07929433554,40.7422762672197,-74.0048000961542,"75 9th Ave",NA,"","New York","10011","US","NY","bars","Bars"
"nI1UYDCYUTt23TpGxqnLKg","buddakan-new-york","Buddakan","https://s3-media4.fl.yelpcdn.com/bphoto/Avw19VU35-FZLen3nl9gYw/o.jpg",FALSE,"https://www.yelp.com/biz/buddakan-new-york?adjust_creative=seK3nYThXCT622oUlqHkLQ&utm_campaign=yelp_api_v3&utm_medium=api_v3_business_search&utm_source=seK3nYThXCT622oUlqHkLQ",3709,4,"$$$","+12129896699","(212) 989-6699",4190.07929433554,40.7422762672197,-74.0048000961542,"75 9th Ave",NA,"","New York","10011","US","NY","asianfusion","Asian Fusion"
"B3_K2kUVbYOU0VaLcj_LTw","thai-villa-new-york-2","Thai Villa","https://s3-media1.fl.yelpcdn.com/bphoto/OgCU9NPFIl8hF_04Zani9w/o.jpg",FALSE,"https://www.yelp.com/biz/thai-villa-new-york-2?adjust_creative=seK3nYThXCT622oUlqHkLQ&utm_campaign=yelp_api_v3&utm_medium=api_v3_business_search&utm_source=seK3nYThXCT622oUlqHkLQ",2398,4.5,"$$","+12128029999","(212) 802-9999",3744.57039982764,40.73902,-73.99065,"5 E 19th St","G Floor","","New York","10003","US","NY","thai","Thai"
"B3_K2kUVbYOU0VaLcj_LTw","thai-villa-new-york-2","Thai Villa","https://s3-media1.fl.yelpcdn.com/bphoto/OgCU9NPFIl8hF_04Zani9w/o.jpg",FALSE,"https://www.yelp.com/biz/thai-villa-new-york-2?adjust_creative=seK3nYThXCT622oUlqHkLQ&utm_campaign=yelp_api_v3&utm_medium=api_v3_business_search&utm_source=seK3nYThXCT622oUlqHkLQ",2398,4.5,"$$","+12128029999","(212) 802-9999",3744.57039982764,40.73902,-73.99065,"5 E 19th St","G Floor","","New York","10003","US","NY","asianfusion","Asian Fusion"
"B3_K2kUVbYOU0VaLcj_LTw","thai-villa-new-york-2","Thai Villa","https://s3-media1.fl.yelpcdn.com/bphoto/OgCU9NPFIl8hF_04Zani9w/o.jpg",FALSE,"https://www.yelp.com/biz/thai-villa-new-york-2?adjust_creative=seK3nYThXCT622oUlqHkLQ&utm_campaign=yelp_api_v3&utm_medium=api_v3_business_search&utm_source=seK3nYThXCT622oUlqHkLQ",2398,4.5,"$$","+12128029999","(212) 802-9999",3744.57039982764,40.73902,-73.99065,"5 E 19th St","G Floor","","New York","10003","US","NY","vegetarian","Vegetarian"
"ga6sRtE0l85iftw_5-W84Q","dominique-ansel-bakery-new-york","Dominique Ansel Bakery","https://s3-media2.fl.yelpcdn.com/bphoto/fs7t18Em3AqLqsQY_l_2_w/o.jpg",FALSE,"https://www.yelp.com/biz/dominique-ansel-bakery-new-york?adjust_creative=seK3nYThXCT622oUlqHkLQ&utm_campaign=yelp_api_v3&utm_medium=api_v3_business_search&utm_source=seK3nYThXCT622oUlqHkLQ",4077,4,"$$","+12122192773","(212) 219-2773",2316.93073942602,40.72522,-74.00291,"189 Spring St","","","New York","10012","US","NY","bakeries","Bakeries"
"ga6sRtE0l85iftw_5-W84Q","dominique-ansel-bakery-new-york","Dominique Ansel Bakery","https://s3-media2.fl.yelpcdn.com/bphoto/fs7t18Em3AqLqsQY_l_2_w/o.jpg",FALSE,"https://www.yelp.com/biz/dominique-ansel-bakery-new-york?adjust_creative=seK3nYThXCT622oUlqHkLQ&utm_campaign=yelp_api_v3&utm_medium=api_v3_business_search&utm_source=seK3nYThXCT622oUlqHkLQ",4077,4,"$$","+12122192773","(212) 219-2773",2316.93073942602,40.72522,-74.00291,"189 Spring St","","","New York","10012","US","NY","desserts","Desserts"
"a0IET3_yCFcO36OqGSsisg","eataly-new-york","Eataly","https://s3-media2.fl.yelpcdn.com/bphoto/9Xzihhf_KcZieyru9TX-pg/o.jpg",FALSE,"https://www.yelp.com/biz/eataly-new-york?adjust_creative=seK3nYThXCT622oUlqHkLQ&utm_campaign=yelp_api_v3&utm_medium=api_v3_business_search&utm_source=seK3nYThXCT622oUlqHkLQ",5220,4,"$$","+12122292560","(212) 229-2560",4078.43335379252,40.74195877796,-73.989716662832,"200 5th Ave","","","New York","10010","US","NY","italian","Italian"
"a0IET3_yCFcO36OqGSsisg","eataly-new-york","Eataly","https://s3-media2.fl.yelpcdn.com/bphoto/9Xzihhf_KcZieyru9TX-pg/o.jpg",FALSE,"https://www.yelp.com/biz/eataly-new-york?adjust_creative=seK3nYThXCT622oUlqHkLQ&utm_campaign=yelp_api_v3&utm_medium=api_v3_business_search&utm_source=seK3nYThXCT622oUlqHkLQ",5220,4,"$$","+12122292560","(212) 229-2560",4078.43335379252,40.74195877796,-73.989716662832,"200 5th Ave","","","New York","10010","US","NY","grocery","Grocery"
"a0IET3_yCFcO36OqGSsisg","eataly-new-york","Eataly","https://s3-media2.fl.yelpcdn.com/bphoto/9Xzihhf_KcZieyru9TX-pg/o.jpg",FALSE,"https://www.yelp.com/biz/eataly-new-york?adjust_creative=seK3nYThXCT622oUlqHkLQ&utm_campaign=yelp_api_v3&utm_medium=api_v3_business_search&utm_source=seK3nYThXCT622oUlqHkLQ",5220,4,"$$","+12122292560","(212) 229-2560",4078.43335379252,40.74195877796,-73.989716662832,"200 5th Ave","","","New York","10010","US","NY","cafes","Cafes"
"ysqgdbSrezXgVwER2kQWKA","julianas-pizza-brooklyn-5","Juliana's Pizza","https://s3-media1.fl.yelpcdn.com/bphoto/7JtwTxhWHf3YS70Ss_CfxA/o.jpg",FALSE,"https://www.yelp.com/biz/julianas-pizza-brooklyn-5?adjust_creative=seK3nYThXCT622oUlqHkLQ&utm_campaign=yelp_api_v3&utm_medium=api_v3_business_search&utm_source=seK3nYThXCT622oUlqHkLQ",1909,4.5,"$$","+17185966700","(718) 596-6700",323.205063082273,40.7026153030093,-73.9934159993549,"19 Old Fulton St","","","Brooklyn","11201","US","NY","pizza","Pizza"
"vk7W3_sQwr7eZbRFsXv6rw","taiyaki-nyc-new-york","Taiyaki NYC","https://s3-media4.fl.yelpcdn.com/bphoto/Iyj-1IhhvtdNWycNJS17iw/o.jpg",FALSE,"https://www.yelp.com/biz/taiyaki-nyc-new-york?adjust_creative=seK3nYThXCT622oUlqHkLQ&utm_campaign=yelp_api_v3&utm_medium=api_v3_business_search&utm_source=seK3nYThXCT622oUlqHkLQ",2409,4.5,"$","+12129662882","(212) 966-2882",1439.72580946313,40.71789,-73.9988,"119 Baxter St","",NA,"New York","10013","US","NY","icecream","Ice Cream & Frozen Yogurt"
"-134ZvJ4lgiqx-sjRBWQ9g","totto-ramen-new-york-12","Totto Ramen","https://s3-media1.fl.yelpcdn.com/bphoto/Y8osWRRtc_X1mqAXkvIFKA/o.jpg",FALSE,"https://www.yelp.com/biz/totto-ramen-new-york-12?adjust_creative=seK3nYThXCT622oUlqHkLQ&utm_campaign=yelp_api_v3&utm_medium=api_v3_business_search&utm_source=seK3nYThXCT622oUlqHkLQ",5126,4,"$$","+12125820052","(212) 582-0052",6571.39875452768,40.7643285462369,-73.9876558773155,"366 W 52nd St","","","New York","10019","US","NY","ramen","Ramen"
"ETgJqJHV7BW6pIr9Ox74sA","amélie-new-york","Amélie","https://s3-media4.fl.yelpcdn.com/bphoto/cSDgVuPMnJgMLTrTNSEXug/o.jpg",FALSE,"https://www.yelp.com/biz/am%C3%A9lie-new-york?adjust_creative=seK3nYThXCT622oUlqHkLQ&utm_campaign=yelp_api_v3&utm_medium=api_v3_business_search&utm_source=seK3nYThXCT622oUlqHkLQ",2387,4.5,"$$","+12125332962","(212) 533-2962",3038.86990329401,40.7327,-73.99766,"22 W 8th St","","","New York","10011","US","NY","french","French"
"ETgJqJHV7BW6pIr9Ox74sA","amélie-new-york","Amélie","https://s3-media4.fl.yelpcdn.com/bphoto/cSDgVuPMnJgMLTrTNSEXug/o.jpg",FALSE,"https://www.yelp.com/biz/am%C3%A9lie-new-york?adjust_creative=seK3nYThXCT622oUlqHkLQ&utm_campaign=yelp_api_v3&utm_medium=api_v3_business_search&utm_source=seK3nYThXCT622oUlqHkLQ",2387,4.5,"$$","+12125332962","(212) 533-2962",3038.86990329401,40.7327,-73.99766,"22 W 8th St","","","New York","10011","US","NY","wine_bars","Wine Bars"
"o6q3jm-dU5A6nV3r2lBg9A","chinatown-ice-cream-factory-new-york","Chinatown Ice Cream Factory","https://s3-media4.fl.yelpcdn.com/bphoto/qefHcdS7L4-8v88Ng4so9g/o.jpg",FALSE,"https://www.yelp.com/biz/chinatown-ice-cream-factory-new-york?adjust_creative=seK3nYThXCT622oUlqHkLQ&utm_campaign=yelp_api_v3&utm_medium=api_v3_business_search&utm_source=seK3nYThXCT622oUlqHkLQ",2587,4,"$","+12126084170","(212) 608-4170",1159.96550630452,40.715452,-73.99818,"65 Bayard St","","","New York","10013","US","NY","icecream","Ice Cream & Frozen Yogurt"
"o6q3jm-dU5A6nV3r2lBg9A","chinatown-ice-cream-factory-new-york","Chinatown Ice Cream Factory","https://s3-media4.fl.yelpcdn.com/bphoto/qefHcdS7L4-8v88Ng4so9g/o.jpg",FALSE,"https://www.yelp.com/biz/chinatown-ice-cream-factory-new-york?adjust_creative=seK3nYThXCT622oUlqHkLQ&utm_campaign=yelp_api_v3&utm_medium=api_v3_business_search&utm_source=seK3nYThXCT622oUlqHkLQ",2587,4,"$","+12126084170","(212) 608-4170",1159.96550630452,40.715452,-73.99818,"65 Bayard St","","","New York","10013","US","NY","desserts","Desserts"
"A_YpTLbAlEqeLVSs9bxbEA","club-a-steakhouse-new-york","Club A Steakhouse","https://s3-media2.fl.yelpcdn.com/bphoto/8UNPe4NiTidCHN2VpxGbfg/o.jpg",FALSE,"https://www.yelp.com/biz/club-a-steakhouse-new-york?adjust_creative=seK3nYThXCT622oUlqHkLQ&utm_campaign=yelp_api_v3&utm_medium=api_v3_business_search&utm_source=seK3nYThXCT622oUlqHkLQ",2533,4.5,"$$$","+12126884190","(212) 688-4190",6536.24472533069,40.76006,-73.96557,"240 E 58th St","","","New York","10022","US","NY","steak","Steakhouses"
"0CjK3esfpFcxIopebzjFxA","joes-shanghai-new-york-2","Joe's Shanghai","https://s3-media3.fl.yelpcdn.com/bphoto/ekUo5egd4dlE7zJyb4-Leg/o.jpg",FALSE,"https://www.yelp.com/biz/joes-shanghai-new-york-2?adjust_creative=seK3nYThXCT622oUlqHkLQ&utm_campaign=yelp_api_v3&utm_medium=api_v3_business_search&utm_source=seK3nYThXCT622oUlqHkLQ",5651,4,"$$","+12122338888","(212) 233-8888",1066.50854983491,40.7146691442891,-73.9977602206654,"9 Pell St","","","New York","10013","US","NY","shanghainese","Shanghainese"
"0CjK3esfpFcxIopebzjFxA","joes-shanghai-new-york-2","Joe's Shanghai","https://s3-media3.fl.yelpcdn.com/bphoto/ekUo5egd4dlE7zJyb4-Leg/o.jpg",FALSE,"https://www.yelp.com/biz/joes-shanghai-new-york-2?adjust_creative=seK3nYThXCT622oUlqHkLQ&utm_campaign=yelp_api_v3&utm_medium=api_v3_business_search&utm_source=seK3nYThXCT622oUlqHkLQ",5651,4,"$$","+12122338888","(212) 233-8888",1066.50854983491,40.7146691442891,-73.9977602206654,"9 Pell St","","","New York","10013","US","NY","seafood","Seafood"
"VrCCr45dhN-RRM107iptdg","russ-and-daughters-new-york","Russ & Daughters","https://s3-media4.fl.yelpcdn.com/bphoto/VVsTMR57q-_ebqaPKM_Llg/o.jpg",FALSE,"https://www.yelp.com/biz/russ-and-daughters-new-york?adjust_creative=seK3nYThXCT622oUlqHkLQ&utm_campaign=yelp_api_v3&utm_medium=api_v3_business_search&utm_source=seK3nYThXCT622oUlqHkLQ",1937,4.5,"$$","+12124754880","(212) 475-4880",1972.49664821459,40.722589,-73.9882828294139,"179 E Houston St","","","New York","10002","US","NY","bagels","Bagels"
"VrCCr45dhN-RRM107iptdg","russ-and-daughters-new-york","Russ & Daughters","https://s3-media4.fl.yelpcdn.com/bphoto/VVsTMR57q-_ebqaPKM_Llg/o.jpg",FALSE,"https://www.yelp.com/biz/russ-and-daughters-new-york?adjust_creative=seK3nYThXCT622oUlqHkLQ&utm_campaign=yelp_api_v3&utm_medium=api_v3_business_search&utm_source=seK3nYThXCT622oUlqHkLQ",1937,4.5,"$$","+12124754880","(212) 475-4880",1972.49664821459,40.722589,-73.9882828294139,"179 E Houston St","","","New York","10002","US","NY","smokehouse","Smokehouse"
"WIhm0W9197f_rRtDziq5qQ","lombardis-pizza-new-york-4","Lombardi's Pizza","https://s3-media1.fl.yelpcdn.com/bphoto/UZ6V_hobp1KpYDPOHNoCKw/o.jpg",FALSE,"https://www.yelp.com/biz/lombardis-pizza-new-york-4?adjust_creative=seK3nYThXCT622oUlqHkLQ&utm_campaign=yelp_api_v3&utm_medium=api_v3_business_search&utm_source=seK3nYThXCT622oUlqHkLQ",5791,4,"$$","+12129417994","(212) 941-7994",1804.47339317981,40.72164,-73.9957,"32 Spring St","","","New York","10012","US","NY","pizza","Pizza"
"xt4sa64WOrpJvZBDPNPNYg","jacobs-pickles-new-york","Jacob's Pickles","https://s3-media2.fl.yelpcdn.com/bphoto/167Rl2s1oMge_2ZSDD1z0A/o.jpg",FALSE,"https://www.yelp.com/biz/jacobs-pickles-new-york?adjust_creative=seK3nYThXCT622oUlqHkLQ&utm_campaign=yelp_api_v3&utm_medium=api_v3_business_search&utm_source=seK3nYThXCT622oUlqHkLQ",3580,4,"$$","+12124705566","(212) 470-5566",9166.96473786318,40.7866504411994,-73.9755284786224,"509 Amsterdam Ave","","","New York","10024","US","NY","comfortfood","Comfort Food"
"xt4sa64WOrpJvZBDPNPNYg","jacobs-pickles-new-york","Jacob's Pickles","https://s3-media2.fl.yelpcdn.com/bphoto/167Rl2s1oMge_2ZSDD1z0A/o.jpg",FALSE,"https://www.yelp.com/biz/jacobs-pickles-new-york?adjust_creative=seK3nYThXCT622oUlqHkLQ&utm_campaign=yelp_api_v3&utm_medium=api_v3_business_search&utm_source=seK3nYThXCT622oUlqHkLQ",3580,4,"$$","+12124705566","(212) 470-5566",9166.96473786318,40.7866504411994,-73.9755284786224,"509 Amsterdam Ave","","","New York","10024","US","NY","southern","Southern"
"xt4sa64WOrpJvZBDPNPNYg","jacobs-pickles-new-york","Jacob's Pickles","https://s3-media2.fl.yelpcdn.com/bphoto/167Rl2s1oMge_2ZSDD1z0A/o.jpg",FALSE,"https://www.yelp.com/biz/jacobs-pickles-new-york?adjust_creative=seK3nYThXCT622oUlqHkLQ&utm_campaign=yelp_api_v3&utm_medium=api_v3_business_search&utm_source=seK3nYThXCT622oUlqHkLQ",3580,4,"$$","+12124705566","(212) 470-5566",9166.96473786318,40.7866504411994,-73.9755284786224,"509 Amsterdam Ave","","","New York","10024","US","NY","tradamerican","American (Traditional)"
"nRO136GRieGtxz18uD61DA","eleven-madison-park-new-york","Eleven Madison Park","https://s3-media3.fl.yelpcdn.com/bphoto/-80vpN8iZykUnx6y8Q-jRw/o.jpg",FALSE,"https://www.yelp.com/biz/eleven-madison-park-new-york?adjust_creative=seK3nYThXCT622oUlqHkLQ&utm_campaign=yelp_api_v3&utm_medium=api_v3_business_search&utm_source=seK3nYThXCT622oUlqHkLQ",2002,4.5,"$$$$","+12128890905","(212) 889-0905",4074.34639827752,40.7416907417333,-73.9872074872255,"11 Madison Ave","","","New York","10010","US","NY","newamerican","American (New)"
"nRO136GRieGtxz18uD61DA","eleven-madison-park-new-york","Eleven Madison Park","https://s3-media3.fl.yelpcdn.com/bphoto/-80vpN8iZykUnx6y8Q-jRw/o.jpg",FALSE,"https://www.yelp.com/biz/eleven-madison-park-new-york?adjust_creative=seK3nYThXCT622oUlqHkLQ&utm_campaign=yelp_api_v3&utm_medium=api_v3_business_search&utm_source=seK3nYThXCT622oUlqHkLQ",2002,4.5,"$$$$","+12128890905","(212) 889-0905",4074.34639827752,40.7416907417333,-73.9872074872255,"11 Madison Ave","","","New York","10010","US","NY","french","French"
"nRO136GRieGtxz18uD61DA","eleven-madison-park-new-york","Eleven Madison Park","https://s3-media3.fl.yelpcdn.com/bphoto/-80vpN8iZykUnx6y8Q-jRw/o.jpg",FALSE,"https://www.yelp.com/biz/eleven-madison-park-new-york?adjust_creative=seK3nYThXCT622oUlqHkLQ&utm_campaign=yelp_api_v3&utm_medium=api_v3_business_search&utm_source=seK3nYThXCT622oUlqHkLQ",2002,4.5,"$$$$","+12128890905","(212) 889-0905",4074.34639827752,40.7416907417333,-73.9872074872255,"11 Madison Ave","","","New York","10010","US","NY","cocktailbars","Cocktail Bars"
"b8a-8u_A51v2IzyjLVsx6w","del-friscos-double-eagle-steakhouse-new-york","Del Frisco's Double Eagle Steakhouse","https://s3-media3.fl.yelpcdn.com/bphoto/FyQ0V-QtndWStk5B8qwjXw/o.jpg",FALSE,"https://www.yelp.com/biz/del-friscos-double-eagle-steakhouse-new-york?adjust_creative=seK3nYThXCT622oUlqHkLQ&utm_campaign=yelp_api_v3&utm_medium=api_v3_business_search&utm_source=seK3nYThXCT622oUlqHkLQ",2726,4.5,"$$$$","+12125755129","(212) 575-5129",6086.46653954684,40.759412,-73.982221,"1221 Ave Of The Americas","","","New York","10020","US","NY","steak","Steakhouses"
"b8a-8u_A51v2IzyjLVsx6w","del-friscos-double-eagle-steakhouse-new-york","Del Frisco's Double Eagle Steakhouse","https://s3-media3.fl.yelpcdn.com/bphoto/FyQ0V-QtndWStk5B8qwjXw/o.jpg",FALSE,"https://www.yelp.com/biz/del-friscos-double-eagle-steakhouse-new-york?adjust_creative=seK3nYThXCT622oUlqHkLQ&utm_campaign=yelp_api_v3&utm_medium=api_v3_business_search&utm_source=seK3nYThXCT622oUlqHkLQ",2726,4.5,"$$$$","+12125755129","(212) 575-5129",6086.46653954684,40.759412,-73.982221,"1221 Ave Of The Americas","","","New York","10020","US","NY","newamerican","American (New)"
"b8a-8u_A51v2IzyjLVsx6w","del-friscos-double-eagle-steakhouse-new-york","Del Frisco's Double Eagle Steakhouse","https://s3-media3.fl.yelpcdn.com/bphoto/FyQ0V-QtndWStk5B8qwjXw/o.jpg",FALSE,"https://www.yelp.com/biz/del-friscos-double-eagle-steakhouse-new-york?adjust_creative=seK3nYThXCT622oUlqHkLQ&utm_campaign=yelp_api_v3&utm_medium=api_v3_business_search&utm_source=seK3nYThXCT622oUlqHkLQ",2726,4.5,"$$$$","+12125755129","(212) 575-5129",6086.46653954684,40.759412,-73.982221,"1221 Ave Of The Americas","","","New York","10020","US","NY","seafood","Seafood"
"TN4RnyqHMSupRFot4Q-_EA","ippudo-westside-new-york","Ippudo Westside","https://s3-media2.fl.yelpcdn.com/bphoto/EmJBZo1FvHemEBgyJknEOQ/o.jpg",FALSE,"https://www.yelp.com/biz/ippudo-westside-new-york?adjust_creative=seK3nYThXCT622oUlqHkLQ&utm_campaign=yelp_api_v3&utm_medium=api_v3_business_search&utm_source=seK3nYThXCT622oUlqHkLQ",3400,4,"$$","+12129742500","(212) 974-2500",6486.78930888647,40.76344,-73.98661,"321 W 51st St",NA,"","New York","10019","US","NY","ramen","Ramen"
"ikazsJps1k-Br2FbunwCtg","spot-dessert-bar-new-york-2","Spot Dessert Bar","https://s3-media1.fl.yelpcdn.com/bphoto/0WUYc9QKwyZHZ1s6niRdmA/o.jpg",FALSE,"https://www.yelp.com/biz/spot-dessert-bar-new-york-2?adjust_creative=seK3nYThXCT622oUlqHkLQ&utm_campaign=yelp_api_v3&utm_medium=api_v3_business_search&utm_source=seK3nYThXCT622oUlqHkLQ",2773,4,"$$","+12126775670","(212) 677-5670",2697.52333436577,40.72939,-73.98892,"13 St Marks Pl","","","New York","10003","US","NY","desserts","Desserts"
"ikazsJps1k-Br2FbunwCtg","spot-dessert-bar-new-york-2","Spot Dessert Bar","https://s3-media1.fl.yelpcdn.com/bphoto/0WUYc9QKwyZHZ1s6niRdmA/o.jpg",FALSE,"https://www.yelp.com/biz/spot-dessert-bar-new-york-2?adjust_creative=seK3nYThXCT622oUlqHkLQ&utm_campaign=yelp_api_v3&utm_medium=api_v3_business_search&utm_source=seK3nYThXCT622oUlqHkLQ",2773,4,"$$","+12126775670","(212) 677-5670",2697.52333436577,40.72939,-73.98892,"13 St Marks Pl","","","New York","10003","US","NY","macarons","Macarons"
"ikazsJps1k-Br2FbunwCtg","spot-dessert-bar-new-york-2","Spot Dessert Bar","https://s3-media1.fl.yelpcdn.com/bphoto/0WUYc9QKwyZHZ1s6niRdmA/o.jpg",FALSE,"https://www.yelp.com/biz/spot-dessert-bar-new-york-2?adjust_creative=seK3nYThXCT622oUlqHkLQ&utm_campaign=yelp_api_v3&utm_medium=api_v3_business_search&utm_source=seK3nYThXCT622oUlqHkLQ",2773,4,"$$","+12126775670","(212) 677-5670",2697.52333436577,40.72939,-73.98892,"13 St Marks Pl","","","New York","10003","US","NY","creperies","Creperies"
"ehUuSk5gPTCQmwS_ubgKRA","upstate-new-york-2","Upstate","https://s3-media1.fl.yelpcdn.com/bphoto/RvnUVU7MF7DT0RzNL-EebQ/o.jpg",FALSE,"https://www.yelp.com/biz/upstate-new-york-2?adjust_creative=seK3nYThXCT622oUlqHkLQ&utm_campaign=yelp_api_v3&utm_medium=api_v3_business_search&utm_source=seK3nYThXCT622oUlqHkLQ",1673,4.5,"$$","+16467915400","(646) 791-5400",2411.91871779869,40.7263139141197,-73.9864901976935,"95 1st Ave","","","New York","10003","US","NY","seafood","Seafood"
"ehUuSk5gPTCQmwS_ubgKRA","upstate-new-york-2","Upstate","https://s3-media1.fl.yelpcdn.com/bphoto/RvnUVU7MF7DT0RzNL-EebQ/o.jpg",FALSE,"https://www.yelp.com/biz/upstate-new-york-2?adjust_creative=seK3nYThXCT622oUlqHkLQ&utm_campaign=yelp_api_v3&utm_medium=api_v3_business_search&utm_source=seK3nYThXCT622oUlqHkLQ",1673,4.5,"$$","+16467915400","(646) 791-5400",2411.91871779869,40.7263139141197,-73.9864901976935,"95 1st Ave","","","New York","10003","US","NY","wine_bars","Wine Bars"
"ehUuSk5gPTCQmwS_ubgKRA","upstate-new-york-2","Upstate","https://s3-media1.fl.yelpcdn.com/bphoto/RvnUVU7MF7DT0RzNL-EebQ/o.jpg",FALSE,"https://www.yelp.com/biz/upstate-new-york-2?adjust_creative=seK3nYThXCT622oUlqHkLQ&utm_campaign=yelp_api_v3&utm_medium=api_v3_business_search&utm_source=seK3nYThXCT622oUlqHkLQ",1673,4.5,"$$","+16467915400","(646) 791-5400",2411.91871779869,40.7263139141197,-73.9864901976935,"95 1st Ave","","","New York","10003","US","NY","beerbar","Beer Bar"
"P58WuRP1AGD9ruE2bZ2urw","dough-brooklyn","Dough","https://s3-media3.fl.yelpcdn.com/bphoto/KcewvAjmgrW09P2Mb_Rvig/o.jpg",FALSE,"https://www.yelp.com/biz/dough-brooklyn?adjust_creative=seK3nYThXCT622oUlqHkLQ&utm_campaign=yelp_api_v3&utm_medium=api_v3_business_search&utm_source=seK3nYThXCT622oUlqHkLQ",1680,4.5,"$","+13475337544","(347) 533-7544",3625.30796254516,40.6890699083996,-73.9571077502625,"448 Franklin Ave","","","Brooklyn","11205","US","NY","donuts","Donuts"
"P58WuRP1AGD9ruE2bZ2urw","dough-brooklyn","Dough","https://s3-media3.fl.yelpcdn.com/bphoto/KcewvAjmgrW09P2Mb_Rvig/o.jpg",FALSE,"https://www.yelp.com/biz/dough-brooklyn?adjust_creative=seK3nYThXCT622oUlqHkLQ&utm_campaign=yelp_api_v3&utm_medium=api_v3_business_search&utm_source=seK3nYThXCT622oUlqHkLQ",1680,4.5,"$","+13475337544","(347) 533-7544",3625.30796254516,40.6890699083996,-73.9571077502625,"448 Franklin Ave","","","Brooklyn","11205","US","NY","coffee","Coffee & Tea"
"8HkB3JfIj7_g-MN5ujoRig","grand-central-terminal-new-york","Grand Central Terminal","https://s3-media3.fl.yelpcdn.com/bphoto/t9Pl11kD4bs9J3AJRJlHyQ/o.jpg",FALSE,"https://www.yelp.com/biz/grand-central-terminal-new-york?adjust_creative=seK3nYThXCT622oUlqHkLQ&utm_campaign=yelp_api_v3&utm_medium=api_v3_business_search&utm_source=seK3nYThXCT622oUlqHkLQ",1312,4.5,NA,"+12123402583","(212) 340-2583",5459.11147812191,40.752793,-73.977165,"89 E 42nd St",NA,"","New York","10017","US","NY","landmarks","Landmarks & Historical Buildings"
"8HkB3JfIj7_g-MN5ujoRig","grand-central-terminal-new-york","Grand Central Terminal","https://s3-media3.fl.yelpcdn.com/bphoto/t9Pl11kD4bs9J3AJRJlHyQ/o.jpg",FALSE,"https://www.yelp.com/biz/grand-central-terminal-new-york?adjust_creative=seK3nYThXCT622oUlqHkLQ&utm_campaign=yelp_api_v3&utm_medium=api_v3_business_search&utm_source=seK3nYThXCT622oUlqHkLQ",1312,4.5,NA,"+12123402583","(212) 340-2583",5459.11147812191,40.752793,-73.977165,"89 E 42nd St",NA,"","New York","10017","US","NY","trainstations","Train Stations"
"iBm8YTqNwrddsxWdqLPK-A","caracas-arepa-bar-new-york","Caracas Arepa Bar","https://s3-media2.fl.yelpcdn.com/bphoto/q32mPKv-WrIiavzLeD4SJg/o.jpg",FALSE,"https://www.yelp.com/biz/caracas-arepa-bar-new-york?adjust_creative=seK3nYThXCT622oUlqHkLQ&utm_campaign=yelp_api_v3&utm_medium=api_v3_business_search&utm_source=seK3nYThXCT622oUlqHkLQ",2507,4,"$$","+12122285062","(212) 228-5062",2507.05691308473,40.7269655,-73.9854223,"91 E 7th St","","","New York","10009","US","NY","venezuelan","Venezuelan"
"iBm8YTqNwrddsxWdqLPK-A","caracas-arepa-bar-new-york","Caracas Arepa Bar","https://s3-media2.fl.yelpcdn.com/bphoto/q32mPKv-WrIiavzLeD4SJg/o.jpg",FALSE,"https://www.yelp.com/biz/caracas-arepa-bar-new-york?adjust_creative=seK3nYThXCT622oUlqHkLQ&utm_campaign=yelp_api_v3&utm_medium=api_v3_business_search&utm_source=seK3nYThXCT622oUlqHkLQ",2507,4,"$$","+12122285062","(212) 228-5062",2507.05691308473,40.7269655,-73.9854223,"91 E 7th St","","","New York","10009","US","NY","bars","Bars"
"dMhRafXdr765DHe0k-QfaQ","abc-kitchen-new-york","ABC Kitchen","https://s3-media2.fl.yelpcdn.com/bphoto/k2V0QyHL_IFbfDnR33S0cg/o.jpg",FALSE,"https://www.yelp.com/biz/abc-kitchen-new-york?adjust_creative=seK3nYThXCT622oUlqHkLQ&utm_campaign=yelp_api_v3&utm_medium=api_v3_business_search&utm_source=seK3nYThXCT622oUlqHkLQ",2847,4,"$$$","+12124755829","(212) 475-5829",3652.08437917842,40.738085,-73.989472,"35 E 18th St","","","New York","10003","US","NY","newamerican","American (New)"
"dMhRafXdr765DHe0k-QfaQ","abc-kitchen-new-york","ABC Kitchen","https://s3-media2.fl.yelpcdn.com/bphoto/k2V0QyHL_IFbfDnR33S0cg/o.jpg",FALSE,"https://www.yelp.com/biz/abc-kitchen-new-york?adjust_creative=seK3nYThXCT622oUlqHkLQ&utm_campaign=yelp_api_v3&utm_medium=api_v3_business_search&utm_source=seK3nYThXCT622oUlqHkLQ",2847,4,"$$$","+12124755829","(212) 475-5829",3652.08437917842,40.738085,-73.989472,"35 E 18th St","","","New York","10003","US","NY","french","French"
"HxC2ZN010NxAFwjTqUVpzw","rice-to-riches-new-york","Rice To Riches","https://s3-media1.fl.yelpcdn.com/bphoto/piqXaAjUb85Pt7n7CNpGVA/o.jpg",FALSE,"https://www.yelp.com/biz/rice-to-riches-new-york?adjust_creative=seK3nYThXCT622oUlqHkLQ&utm_campaign=yelp_api_v3&utm_medium=api_v3_business_search&utm_source=seK3nYThXCT622oUlqHkLQ",2904,4,"$$","+12122740008","(212) 274-0008",1828.03828304722,40.721845,-73.995802,"37 Spring St","","","New York","10012","US","NY","desserts","Desserts"
"OUPyV2WKYETuprScXSAtuA","the-museum-of-modern-art-new-york-3","The Museum of Modern Art","https://s3-media1.fl.yelpcdn.com/bphoto/aLAhip2kC7DkEIa4M1SzCw/o.jpg",FALSE,"https://www.yelp.com/biz/the-museum-of-modern-art-new-york-3?adjust_creative=seK3nYThXCT622oUlqHkLQ&utm_campaign=yelp_api_v3&utm_medium=api_v3_business_search&utm_source=seK3nYThXCT622oUlqHkLQ",1915,4.5,NA,"+12127089400","(212) 708-9400",6374.59053126875,40.76146,-73.97736,"11 West 53rd St","","","New York","10019","US","NY","artmuseums","Art Museums"
"qLLxS7RwNEjP_jq_KQrPfA","traif-brooklyn","Traif","https://s3-media2.fl.yelpcdn.com/bphoto/_srdk7UPM4mShxAIqm9aqg/o.jpg",FALSE,"https://www.yelp.com/biz/traif-brooklyn?adjust_creative=seK3nYThXCT622oUlqHkLQ&utm_campaign=yelp_api_v3&utm_medium=api_v3_business_search&utm_source=seK3nYThXCT622oUlqHkLQ",1804,4.5,"$$$","+13478449578","(347) 844-9578",3041.42033773568,40.710658,-73.958872,"229 S 4th St","","","Brooklyn","11211","US","NY","newamerican","American (New)"
"qLLxS7RwNEjP_jq_KQrPfA","traif-brooklyn","Traif","https://s3-media2.fl.yelpcdn.com/bphoto/_srdk7UPM4mShxAIqm9aqg/o.jpg",FALSE,"https://www.yelp.com/biz/traif-brooklyn?adjust_creative=seK3nYThXCT622oUlqHkLQ&utm_campaign=yelp_api_v3&utm_medium=api_v3_business_search&utm_source=seK3nYThXCT622oUlqHkLQ",1804,4.5,"$$$","+13478449578","(347) 844-9578",3041.42033773568,40.710658,-73.958872,"229 S 4th St","","","Brooklyn","11211","US","NY","tapasmallplates","Tapas/Small Plates"
"Hs1TH_4FpyzbX6_J5r1XXg","mollys-cupcakes-new-york","Molly's Cupcakes","https://s3-media2.fl.yelpcdn.com/bphoto/7N63eLWpHu-aph3MOo_Viw/o.jpg",FALSE,"https://www.yelp.com/biz/mollys-cupcakes-new-york?adjust_creative=seK3nYThXCT622oUlqHkLQ&utm_campaign=yelp_api_v3&utm_medium=api_v3_business_search&utm_source=seK3nYThXCT622oUlqHkLQ",1579,4.5,"$$","+12124142253","(212) 414-2253",2828.81238686116,40.73014,-74.00248,"228 Bleecker St","","","New York","10014","US","NY","bakeries","Bakeries"
"Hs1TH_4FpyzbX6_J5r1XXg","mollys-cupcakes-new-york","Molly's Cupcakes","https://s3-media2.fl.yelpcdn.com/bphoto/7N63eLWpHu-aph3MOo_Viw/o.jpg",FALSE,"https://www.yelp.com/biz/mollys-cupcakes-new-york?adjust_creative=seK3nYThXCT622oUlqHkLQ&utm_campaign=yelp_api_v3&utm_medium=api_v3_business_search&utm_source=seK3nYThXCT622oUlqHkLQ",1579,4.5,"$$","+12124142253","(212) 414-2253",2828.81238686116,40.73014,-74.00248,"228 Bleecker St","","","New York","10014","US","NY","cupcakes","Cupcakes"
"Hs1TH_4FpyzbX6_J5r1XXg","mollys-cupcakes-new-york","Molly's Cupcakes","https://s3-media2.fl.yelpcdn.com/bphoto/7N63eLWpHu-aph3MOo_Viw/o.jpg",FALSE,"https://www.yelp.com/biz/mollys-cupcakes-new-york?adjust_creative=seK3nYThXCT622oUlqHkLQ&utm_campaign=yelp_api_v3&utm_medium=api_v3_business_search&utm_source=seK3nYThXCT622oUlqHkLQ",1579,4.5,"$$","+12124142253","(212) 414-2253",2828.81238686116,40.73014,-74.00248,"228 Bleecker St","","","New York","10014","US","NY","customcakes","Custom Cakes"
"NOh24SMS6k4pzNv8Ds7KDg","cafe-habana-new-york-4","Cafe Habana","https://s3-media2.fl.yelpcdn.com/bphoto/WuNDJ9FPA4d9dripofqHDQ/o.jpg",FALSE,"https://www.yelp.com/biz/cafe-habana-new-york-4?adjust_creative=seK3nYThXCT622oUlqHkLQ&utm_campaign=yelp_api_v3&utm_medium=api_v3_business_search&utm_source=seK3nYThXCT622oUlqHkLQ",3084,4,"$$","+12126252001","(212) 625-2001",1951.84463478831,40.722998,-73.994171,"17 Prince St","","","New York","10012","US","NY","cuban","Cuban"
"NOh24SMS6k4pzNv8Ds7KDg","cafe-habana-new-york-4","Cafe Habana","https://s3-media2.fl.yelpcdn.com/bphoto/WuNDJ9FPA4d9dripofqHDQ/o.jpg",FALSE,"https://www.yelp.com/biz/cafe-habana-new-york-4?adjust_creative=seK3nYThXCT622oUlqHkLQ&utm_campaign=yelp_api_v3&utm_medium=api_v3_business_search&utm_source=seK3nYThXCT622oUlqHkLQ",3084,4,"$$","+12126252001","(212) 625-2001",1951.84463478831,40.722998,-73.994171,"17 Prince St","","","New York","10012","US","NY","mexican","Mexican"
"t1w4qyqyfEdTPhoy-5t3FA","morimoto-new-york","Morimoto","https://s3-media3.fl.yelpcdn.com/bphoto/r5u2gd0GWd7O5xyVE3K7Aw/o.jpg",FALSE,"https://www.yelp.com/biz/morimoto-new-york?adjust_creative=seK3nYThXCT622oUlqHkLQ&utm_campaign=yelp_api_v3&utm_medium=api_v3_business_search&utm_source=seK3nYThXCT622oUlqHkLQ",2917,4,"$$$$","+12129898883","(212) 989-8883",4325.22323448918,40.74332,-74.00713,"88 10th Ave",NA,"","New York","10011","US","NY","japanese","Japanese"
"t1w4qyqyfEdTPhoy-5t3FA","morimoto-new-york","Morimoto","https://s3-media3.fl.yelpcdn.com/bphoto/r5u2gd0GWd7O5xyVE3K7Aw/o.jpg",FALSE,"https://www.yelp.com/biz/morimoto-new-york?adjust_creative=seK3nYThXCT622oUlqHkLQ&utm_campaign=yelp_api_v3&utm_medium=api_v3_business_search&utm_source=seK3nYThXCT622oUlqHkLQ",2917,4,"$$$$","+12129898883","(212) 989-8883",4325.22323448918,40.74332,-74.00713,"88 10th Ave",NA,"","New York","10011","US","NY","sushi","Sushi Bars"
"ZD22cMZvSmfNsXS9vKizGA","angels-share-new-york","Angel's Share","https://s3-media4.fl.yelpcdn.com/bphoto/TERKnj4yurIJpjaUv37pqQ/o.jpg",FALSE,"https://www.yelp.com/biz/angels-share-new-york?adjust_creative=seK3nYThXCT622oUlqHkLQ&utm_campaign=yelp_api_v3&utm_medium=api_v3_business_search&utm_source=seK3nYThXCT622oUlqHkLQ",1992,4.5,"$$","+12127775415","(212) 777-5415",2732.73642474718,40.7297097529882,-73.9891492245369,"8 Stuyvesant St","","","New York","10003","US","NY","cocktailbars","Cocktail Bars"
"ZD22cMZvSmfNsXS9vKizGA","angels-share-new-york","Angel's Share","https://s3-media4.fl.yelpcdn.com/bphoto/TERKnj4yurIJpjaUv37pqQ/o.jpg",FALSE,"https://www.yelp.com/biz/angels-share-new-york?adjust_creative=seK3nYThXCT622oUlqHkLQ&utm_campaign=yelp_api_v3&utm_medium=api_v3_business_search&utm_source=seK3nYThXCT622oUlqHkLQ",1992,4.5,"$$","+12127775415","(212) 777-5415",2732.73642474718,40.7297097529882,-73.9891492245369,"8 Stuyvesant St","","","New York","10003","US","NY","speakeasies","Speakeasies"
"L-IuiVoFMDSw2K6OAciP1g","mamouns-falafel-new-york-2","Mamoun's Falafel","https://s3-media3.fl.yelpcdn.com/bphoto/FR6YOM7OnTC9pHUBaC86Tw/o.jpg",FALSE,"https://www.yelp.com/biz/mamouns-falafel-new-york-2?adjust_creative=seK3nYThXCT622oUlqHkLQ&utm_campaign=yelp_api_v3&utm_medium=api_v3_business_search&utm_source=seK3nYThXCT622oUlqHkLQ",2290,4,"$","+12126748685","(212) 674-8685",2808.01577371884,40.7302874,-74.0004383,"119 MacDougal St",NA,"","New York","10012","US","NY","mideastern","Middle Eastern"
"L-IuiVoFMDSw2K6OAciP1g","mamouns-falafel-new-york-2","Mamoun's Falafel","https://s3-media3.fl.yelpcdn.com/bphoto/FR6YOM7OnTC9pHUBaC86Tw/o.jpg",FALSE,"https://www.yelp.com/biz/mamouns-falafel-new-york-2?adjust_creative=seK3nYThXCT622oUlqHkLQ&utm_campaign=yelp_api_v3&utm_medium=api_v3_business_search&utm_source=seK3nYThXCT622oUlqHkLQ",2290,4,"$","+12126748685","(212) 674-8685",2808.01577371884,40.7302874,-74.0004383,"119 MacDougal St",NA,"","New York","10012","US","NY","falafel","Falafel"
"1DfbZ0VsSCg9g1KILmnvzQ","per-se-new-york","Per Se","https://s3-media4.fl.yelpcdn.com/bphoto/-mDuQPVFkY7fUFX6EflsQw/o.jpg",FALSE,"https://www.yelp.com/biz/per-se-new-york?adjust_creative=seK3nYThXCT622oUlqHkLQ&utm_campaign=yelp_api_v3&utm_medium=api_v3_business_search&utm_source=seK3nYThXCT622oUlqHkLQ",1520,4.5,"$$$$","+12128239335","(212) 823-9335",7040.15505370179,40.7681528889558,-73.9827629623657,"10 Columbus Cir","Fl 4",NA,"New York","10019","US","NY","french","French"
"DZaN3bNWfwcm__sNw5bvDg","daniel-new-york-4","Daniel","https://s3-media3.fl.yelpcdn.com/bphoto/LasG7T2JB_8FicF0SDbRMA/o.jpg",FALSE,"https://www.yelp.com/biz/daniel-new-york-4?adjust_creative=seK3nYThXCT622oUlqHkLQ&utm_campaign=yelp_api_v3&utm_medium=api_v3_business_search&utm_source=seK3nYThXCT622oUlqHkLQ",1502,4.5,"$$$$","+12122880033","(212) 288-0033",7180.55259289793,40.7667736797858,-73.967607,"60 E 65th St.","","","New York","10065","US","NY","french","French"
"DZaN3bNWfwcm__sNw5bvDg","daniel-new-york-4","Daniel","https://s3-media3.fl.yelpcdn.com/bphoto/LasG7T2JB_8FicF0SDbRMA/o.jpg",FALSE,"https://www.yelp.com/biz/daniel-new-york-4?adjust_creative=seK3nYThXCT622oUlqHkLQ&utm_campaign=yelp_api_v3&utm_medium=api_v3_business_search&utm_source=seK3nYThXCT622oUlqHkLQ",1502,4.5,"$$$$","+12122880033","(212) 288-0033",7180.55259289793,40.7667736797858,-73.967607,"60 E 65th St.","","","New York","10065","US","NY","tradamerican","American (Traditional)"
"DZaN3bNWfwcm__sNw5bvDg","daniel-new-york-4","Daniel","https://s3-media3.fl.yelpcdn.com/bphoto/LasG7T2JB_8FicF0SDbRMA/o.jpg",FALSE,"https://www.yelp.com/biz/daniel-new-york-4?adjust_creative=seK3nYThXCT622oUlqHkLQ&utm_campaign=yelp_api_v3&utm_medium=api_v3_business_search&utm_source=seK3nYThXCT622oUlqHkLQ",1502,4.5,"$$$$","+12122880033","(212) 288-0033",7180.55259289793,40.7667736797858,-73.967607,"60 E 65th St.","","","New York","10065","US","NY","cocktailbars","Cocktail Bars"
"rp8S7scxOkVVeG7dNneMGQ","l-artusi-new-york","L'Artusi","https://s3-media3.fl.yelpcdn.com/bphoto/Yr4VE25s-pjMnLz9nJvNdQ/o.jpg",FALSE,"https://www.yelp.com/biz/l-artusi-new-york?adjust_creative=seK3nYThXCT622oUlqHkLQ&utm_campaign=yelp_api_v3&utm_medium=api_v3_business_search&utm_source=seK3nYThXCT622oUlqHkLQ",1636,4.5,"$$$","+12122555757","(212) 255-5757",3271.91165183138,40.733714,-74.005068,"228 W 10th St","","","New York","10014","US","NY","italian","Italian"
"rp8S7scxOkVVeG7dNneMGQ","l-artusi-new-york","L'Artusi","https://s3-media3.fl.yelpcdn.com/bphoto/Yr4VE25s-pjMnLz9nJvNdQ/o.jpg",FALSE,"https://www.yelp.com/biz/l-artusi-new-york?adjust_creative=seK3nYThXCT622oUlqHkLQ&utm_campaign=yelp_api_v3&utm_medium=api_v3_business_search&utm_source=seK3nYThXCT622oUlqHkLQ",1636,4.5,"$$$","+12122555757","(212) 255-5757",3271.91165183138,40.733714,-74.005068,"228 W 10th St","","","New York","10014","US","NY","cocktailbars","Cocktail Bars"
"6G_NSMacAfdf-WYOpcQ4uw","eileens-special-cheesecake-new-york","Eileen's Special Cheesecake","https://s3-media3.fl.yelpcdn.com/bphoto/sdgnrpAcJYiEPHSGpVRIBg/o.jpg",FALSE,"https://www.yelp.com/biz/eileens-special-cheesecake-new-york?adjust_creative=seK3nYThXCT622oUlqHkLQ&utm_campaign=yelp_api_v3&utm_medium=api_v3_business_search&utm_source=seK3nYThXCT622oUlqHkLQ",1468,4.5,"$","+12129665585","(212) 966-5585",1807.12022874702,40.7215431969029,-73.9972332037048,"17 Cleveland Pl","","","New York","10012","US","NY","bakeries","Bakeries"
"6G_NSMacAfdf-WYOpcQ4uw","eileens-special-cheesecake-new-york","Eileen's Special Cheesecake","https://s3-media3.fl.yelpcdn.com/bphoto/sdgnrpAcJYiEPHSGpVRIBg/o.jpg",FALSE,"https://www.yelp.com/biz/eileens-special-cheesecake-new-york?adjust_creative=seK3nYThXCT622oUlqHkLQ&utm_campaign=yelp_api_v3&utm_medium=api_v3_business_search&utm_source=seK3nYThXCT622oUlqHkLQ",1468,4.5,"$","+12129665585","(212) 966-5585",1807.12022874702,40.7215431969029,-73.9972332037048,"17 Cleveland Pl","","","New York","10012","US","NY","desserts","Desserts"
"36krOhexcsA8Uetoq52A7g","top-of-the-rock-new-york","Top of the Rock","https://s3-media2.fl.yelpcdn.com/bphoto/Nx0IsyYYmySQldZ-RCkZ5Q/o.jpg",FALSE,"https://www.yelp.com/biz/top-of-the-rock-new-york?adjust_creative=seK3nYThXCT622oUlqHkLQ&utm_campaign=yelp_api_v3&utm_medium=api_v3_business_search&utm_source=seK3nYThXCT622oUlqHkLQ",1560,4.5,NA,"+12126982000","(212) 698-2000",6122.18412149183,40.7593342608422,-73.9794015884399,"30 Rockefeller Ctr","","","New York","10112","US","NY","landmarks","Landmarks & Historical Buildings"
"36krOhexcsA8Uetoq52A7g","top-of-the-rock-new-york","Top of the Rock","https://s3-media2.fl.yelpcdn.com/bphoto/Nx0IsyYYmySQldZ-RCkZ5Q/o.jpg",FALSE,"https://www.yelp.com/biz/top-of-the-rock-new-york?adjust_creative=seK3nYThXCT622oUlqHkLQ&utm_campaign=yelp_api_v3&utm_medium=api_v3_business_search&utm_source=seK3nYThXCT622oUlqHkLQ",1560,4.5,NA,"+12126982000","(212) 698-2000",6122.18412149183,40.7593342608422,-73.9794015884399,"30 Rockefeller Ctr","","","New York","10112","US","NY","observatories","Observatories"
"MJJi_5tGkWYI1VReTjhCCA","bryant-park-new-york-2","Bryant Park","https://s3-media2.fl.yelpcdn.com/bphoto/e3C0L_4bryzvPU6PbmZ_dA/o.jpg",FALSE,"https://www.yelp.com/biz/bryant-park-new-york-2?adjust_creative=seK3nYThXCT622oUlqHkLQ&utm_campaign=yelp_api_v3&utm_medium=api_v3_business_search&utm_source=seK3nYThXCT622oUlqHkLQ",1067,4.5,NA,"+12127684242","(212) 768-4242",5460.3507543117,40.7538842911333,-73.9836510457098,"41 W 40th St","","","New York","10018","US","NY","parks","Parks"
"-OixbLnFLCzQclxCSbUQ8w","up-thai-new-york","Up Thai","https://s3-media3.fl.yelpcdn.com/bphoto/g9J3naudQZY72qJAHUOI8A/o.jpg",FALSE,"https://www.yelp.com/biz/up-thai-new-york?adjust_creative=seK3nYThXCT622oUlqHkLQ&utm_campaign=yelp_api_v3&utm_medium=api_v3_business_search&utm_source=seK3nYThXCT622oUlqHkLQ",1939,4.5,"$$","+12122561188","(212) 256-1188",7796.91267575901,40.7698275926665,-73.9576330868512,"1411 2nd Ave","","","New York","10021","US","NY","thai","Thai"
"-OixbLnFLCzQclxCSbUQ8w","up-thai-new-york","Up Thai","https://s3-media3.fl.yelpcdn.com/bphoto/g9J3naudQZY72qJAHUOI8A/o.jpg",FALSE,"https://www.yelp.com/biz/up-thai-new-york?adjust_creative=seK3nYThXCT622oUlqHkLQ&utm_campaign=yelp_api_v3&utm_medium=api_v3_business_search&utm_source=seK3nYThXCT622oUlqHkLQ",1939,4.5,"$$","+12122561188","(212) 256-1188",7796.91267575901,40.7698275926665,-73.9576330868512,"1411 2nd Ave","","","New York","10021","US","NY","asianfusion","Asian Fusion"
"pfmAcS-g6SiNG0KlLvrqnA","beauty-and-essex-new-york","Beauty & Essex","https://s3-media3.fl.yelpcdn.com/bphoto/T0KCvQyqHSClgUQhO02slQ/o.jpg",FALSE,"https://www.yelp.com/biz/beauty-and-essex-new-york?adjust_creative=seK3nYThXCT622oUlqHkLQ&utm_campaign=yelp_api_v3&utm_medium=api_v3_business_search&utm_source=seK3nYThXCT622oUlqHkLQ",3207,4,"$$$","+12126140146","(212) 614-0146",1778.5399536713,40.72037,-73.98677,"146 Essex St",NA,NA,"New York","10002","US","NY","newamerican","American (New)"
"xJSH3EM1iZtOh4WZti4qjg","wafels-and-dinges-new-york","Wafels & Dinges","https://s3-media4.fl.yelpcdn.com/bphoto/LeRqP6BcunXhb4O9joShEQ/o.jpg",FALSE,"https://www.yelp.com/biz/wafels-and-dinges-new-york?adjust_creative=seK3nYThXCT622oUlqHkLQ&utm_campaign=yelp_api_v3&utm_medium=api_v3_business_search&utm_source=seK3nYThXCT622oUlqHkLQ",1525,4.5,"$","+16462572592","(646) 257-2592",4740.02526250842,40.7392845153809,-73.9989318847656,"","","","New York","10011","US","NY","belgian","Belgian"
"xJSH3EM1iZtOh4WZti4qjg","wafels-and-dinges-new-york","Wafels & Dinges","https://s3-media4.fl.yelpcdn.com/bphoto/LeRqP6BcunXhb4O9joShEQ/o.jpg",FALSE,"https://www.yelp.com/biz/wafels-and-dinges-new-york?adjust_creative=seK3nYThXCT622oUlqHkLQ&utm_campaign=yelp_api_v3&utm_medium=api_v3_business_search&utm_source=seK3nYThXCT622oUlqHkLQ",1525,4.5,"$","+16462572592","(646) 257-2592",4740.02526250842,40.7392845153809,-73.9989318847656,"","","","New York","10011","US","NY","waffles","Waffles"
"xJSH3EM1iZtOh4WZti4qjg","wafels-and-dinges-new-york","Wafels & Dinges","https://s3-media4.fl.yelpcdn.com/bphoto/LeRqP6BcunXhb4O9joShEQ/o.jpg",FALSE,"https://www.yelp.com/biz/wafels-and-dinges-new-york?adjust_creative=seK3nYThXCT622oUlqHkLQ&utm_campaign=yelp_api_v3&utm_medium=api_v3_business_search&utm_source=seK3nYThXCT622oUlqHkLQ",1525,4.5,"$","+16462572592","(646) 257-2592",4740.02526250842,40.7392845153809,-73.9989318847656,"","","","New York","10011","US","NY","foodtrucks","Food Trucks"
"qVSOes5JoWc5_umv4nd4Hg","sugar-sweet-sunshine-bakery-new-york","Sugar Sweet Sunshine Bakery","https://s3-media3.fl.yelpcdn.com/bphoto/s1ZtysK_Aehw0zGvloJ_vA/o.jpg",FALSE,"https://www.yelp.com/biz/sugar-sweet-sunshine-bakery-new-york?adjust_creative=seK3nYThXCT622oUlqHkLQ&utm_campaign=yelp_api_v3&utm_medium=api_v3_business_search&utm_source=seK3nYThXCT622oUlqHkLQ",2014,4,"$","+12129951960","(212) 995-1960",1715.44953320372,40.719851,-73.987011,"126 Rivington St","","","New York","10002","US","NY","bakeries","Bakeries"
"U5hCNNyJmb7f3dmC1HTzSQ","juniors-restaurant-and-bakery-45th-st-new-york","Junior's Restaurant & Bakery - 45th St.","https://s3-media2.fl.yelpcdn.com/bphoto/lzsGibsjqwYZEawnpNclyA/o.jpg",FALSE,"https://www.yelp.com/biz/juniors-restaurant-and-bakery-45th-st-new-york?adjust_creative=seK3nYThXCT622oUlqHkLQ&utm_campaign=yelp_api_v3&utm_medium=api_v3_business_search&utm_source=seK3nYThXCT622oUlqHkLQ",3961,4,"$$","+12123022000","(212) 302-2000",5909.68556873485,40.7582662685627,-73.98654,"1515 Broadway",NA,"","New York","10036","US","NY","bakeries","Bakeries"
"U5hCNNyJmb7f3dmC1HTzSQ","juniors-restaurant-and-bakery-45th-st-new-york","Junior's Restaurant & Bakery - 45th St.","https://s3-media2.fl.yelpcdn.com/bphoto/lzsGibsjqwYZEawnpNclyA/o.jpg",FALSE,"https://www.yelp.com/biz/juniors-restaurant-and-bakery-45th-st-new-york?adjust_creative=seK3nYThXCT622oUlqHkLQ&utm_campaign=yelp_api_v3&utm_medium=api_v3_business_search&utm_source=seK3nYThXCT622oUlqHkLQ",3961,4,"$$","+12123022000","(212) 302-2000",5909.68556873485,40.7582662685627,-73.98654,"1515 Broadway",NA,"","New York","10036","US","NY","breakfast_brunch","Breakfast & Brunch"
"U5hCNNyJmb7f3dmC1HTzSQ","juniors-restaurant-and-bakery-45th-st-new-york","Junior's Restaurant & Bakery - 45th St.","https://s3-media2.fl.yelpcdn.com/bphoto/lzsGibsjqwYZEawnpNclyA/o.jpg",FALSE,"https://www.yelp.com/biz/juniors-restaurant-and-bakery-45th-st-new-york?adjust_creative=seK3nYThXCT622oUlqHkLQ&utm_campaign=yelp_api_v3&utm_medium=api_v3_business_search&utm_source=seK3nYThXCT622oUlqHkLQ",3961,4,"$$","+12123022000","(212) 302-2000",5909.68556873485,40.7582662685627,-73.98654,"1515 Broadway",NA,"","New York","10036","US","NY","burgers","Burgers"
"tiSw-6DIm3-mMORyEIOVyg","the-boil-new-york-3","The Boil","https://s3-media3.fl.yelpcdn.com/bphoto/Y8Zgcd9DTKb_MGfjSBbh3g/o.jpg",FALSE,"https://www.yelp.com/biz/the-boil-new-york-3?adjust_creative=seK3nYThXCT622oUlqHkLQ&utm_campaign=yelp_api_v3&utm_medium=api_v3_business_search&utm_source=seK3nYThXCT622oUlqHkLQ",1740,4.5,"$$","+12129258815","(212) 925-8815",1594.36212789802,40.71974,-73.99339,"139 Chrystie St",NA,"","New York","10002","US","NY","cajun","Cajun/Creole"
"tiSw-6DIm3-mMORyEIOVyg","the-boil-new-york-3","The Boil","https://s3-media3.fl.yelpcdn.com/bphoto/Y8Zgcd9DTKb_MGfjSBbh3g/o.jpg",FALSE,"https://www.yelp.com/biz/the-boil-new-york-3?adjust_creative=seK3nYThXCT622oUlqHkLQ&utm_campaign=yelp_api_v3&utm_medium=api_v3_business_search&utm_source=seK3nYThXCT622oUlqHkLQ",1740,4.5,"$$","+12129258815","(212) 925-8815",1594.36212789802,40.71974,-73.99339,"139 Chrystie St",NA,"","New York","10002","US","NY","seafood","Seafood"
"tiSw-6DIm3-mMORyEIOVyg","the-boil-new-york-3","The Boil","https://s3-media3.fl.yelpcdn.com/bphoto/Y8Zgcd9DTKb_MGfjSBbh3g/o.jpg",FALSE,"https://www.yelp.com/biz/the-boil-new-york-3?adjust_creative=seK3nYThXCT622oUlqHkLQ&utm_campaign=yelp_api_v3&utm_medium=api_v3_business_search&utm_source=seK3nYThXCT622oUlqHkLQ",1740,4.5,"$$","+12129258815","(212) 925-8815",1594.36212789802,40.71974,-73.99339,"139 Chrystie St",NA,"","New York","10002","US","NY","raw_food","Live/Raw Food"
"XskangHFq3JD9klJFuGH8w","doughnut-plant-new-york-2","Doughnut Plant","https://s3-media3.fl.yelpcdn.com/bphoto/v4OYRujNsY4f1SUtinqnYg/o.jpg",FALSE,"https://www.yelp.com/biz/doughnut-plant-new-york-2?adjust_creative=seK3nYThXCT622oUlqHkLQ&utm_campaign=yelp_api_v3&utm_medium=api_v3_business_search&utm_source=seK3nYThXCT622oUlqHkLQ",2385,4,"$$","+12125053700","(212) 505-3700",4328.23634645648,40.7444886,-73.9969095,"220 W 23rd St","","","New York","10011","US","NY","donuts","Donuts"
"XskangHFq3JD9klJFuGH8w","doughnut-plant-new-york-2","Doughnut Plant","https://s3-media3.fl.yelpcdn.com/bphoto/v4OYRujNsY4f1SUtinqnYg/o.jpg",FALSE,"https://www.yelp.com/biz/doughnut-plant-new-york-2?adjust_creative=seK3nYThXCT622oUlqHkLQ&utm_campaign=yelp_api_v3&utm_medium=api_v3_business_search&utm_source=seK3nYThXCT622oUlqHkLQ",2385,4,"$$","+12125053700","(212) 505-3700",4328.23634645648,40.7444886,-73.9969095,"220 W 23rd St","","","New York","10011","US","NY","coffee","Coffee & Tea"
"vfYhEpp0x-DrNjC6GSJjPQ","artichoke-basilles-pizza-new-york-2","Artichoke Basille's Pizza","https://s3-media3.fl.yelpcdn.com/bphoto/53JHO_-CRJ_e43JJIuN_Og/o.jpg",FALSE,"https://www.yelp.com/biz/artichoke-basilles-pizza-new-york-2?adjust_creative=seK3nYThXCT622oUlqHkLQ&utm_campaign=yelp_api_v3&utm_medium=api_v3_business_search&utm_source=seK3nYThXCT622oUlqHkLQ",3767,4,"$","+12122282004","(212) 228-2004",3091.8221137234,40.7321124557704,-73.9839056828882,"321 E 14th St","","","New York","10003","US","NY","pizza","Pizza"
"klAhw3xLQi9GF1tf_HnS7w","izakaya-mew-new-york-3","Izakaya MEW","https://s3-media4.fl.yelpcdn.com/bphoto/Iix5fXx6WGqv-G2gyENd4A/o.jpg",FALSE,"https://www.yelp.com/biz/izakaya-mew-new-york-3?adjust_creative=seK3nYThXCT622oUlqHkLQ&utm_campaign=yelp_api_v3&utm_medium=api_v3_business_search&utm_source=seK3nYThXCT622oUlqHkLQ",1993,4,"$$","+16463689384","(646) 368-9384",5020.06416695017,40.7501853096499,-73.9863203465939,"53 W 35th St","","","New York","10001","US","NY","tapas","Tapas Bars"
"klAhw3xLQi9GF1tf_HnS7w","izakaya-mew-new-york-3","Izakaya MEW","https://s3-media4.fl.yelpcdn.com/bphoto/Iix5fXx6WGqv-G2gyENd4A/o.jpg",FALSE,"https://www.yelp.com/biz/izakaya-mew-new-york-3?adjust_creative=seK3nYThXCT622oUlqHkLQ&utm_campaign=yelp_api_v3&utm_medium=api_v3_business_search&utm_source=seK3nYThXCT622oUlqHkLQ",1993,4,"$$","+16463689384","(646) 368-9384",5020.06416695017,40.7501853096499,-73.9863203465939,"53 W 35th St","","","New York","10001","US","NY","sushi","Sushi Bars"
"klAhw3xLQi9GF1tf_HnS7w","izakaya-mew-new-york-3","Izakaya MEW","https://s3-media4.fl.yelpcdn.com/bphoto/Iix5fXx6WGqv-G2gyENd4A/o.jpg",FALSE,"https://www.yelp.com/biz/izakaya-mew-new-york-3?adjust_creative=seK3nYThXCT622oUlqHkLQ&utm_campaign=yelp_api_v3&utm_medium=api_v3_business_search&utm_source=seK3nYThXCT622oUlqHkLQ",1993,4,"$$","+16463689384","(646) 368-9384",5020.06416695017,40.7501853096499,-73.9863203465939,"53 W 35th St","","","New York","10001","US","NY","izakaya","Izakaya"
"SULHf6nGQ8sK0UpG1XU30w","los-tacos-no-1-new-york-3","Los Tacos No.1","https://s3-media4.fl.yelpcdn.com/bphoto/5wEe4FCwda16knmBHSsX0Q/o.jpg",FALSE,"https://www.yelp.com/biz/los-tacos-no-1-new-york-3?adjust_creative=seK3nYThXCT622oUlqHkLQ&utm_campaign=yelp_api_v3&utm_medium=api_v3_business_search&utm_source=seK3nYThXCT622oUlqHkLQ",1009,4.5,"$","+12125744696","(212) 574-4696",5815.02742403386,40.7575067,-73.9877717,"229 W 43rd St","",NA,"New York","10036","US","NY","tacos","Tacos"
"_DcfYjnGffQI3iP1Be0kdA","ladurée-madison-ave-new-york","Ladurée Madison Ave","https://s3-media2.fl.yelpcdn.com/bphoto/o1u9vyQXjkqzfZOVhy18mg/o.jpg",FALSE,"https://www.yelp.com/biz/ladur%C3%A9e-madison-ave-new-york?adjust_creative=seK3nYThXCT622oUlqHkLQ&utm_campaign=yelp_api_v3&utm_medium=api_v3_business_search&utm_source=seK3nYThXCT622oUlqHkLQ",1815,4.5,"$$$","+16465583157","(646) 558-3157",7635.16091965217,40.7707702252517,-73.9663760711639,"864 Madison Ave","","","New York","10021","US","NY","macarons","Macarons"
"_DcfYjnGffQI3iP1Be0kdA","ladurée-madison-ave-new-york","Ladurée Madison Ave","https://s3-media2.fl.yelpcdn.com/bphoto/o1u9vyQXjkqzfZOVhy18mg/o.jpg",FALSE,"https://www.yelp.com/biz/ladur%C3%A9e-madison-ave-new-york?adjust_creative=seK3nYThXCT622oUlqHkLQ&utm_campaign=yelp_api_v3&utm_medium=api_v3_business_search&utm_source=seK3nYThXCT622oUlqHkLQ",1815,4.5,"$$$","+16465583157","(646) 558-3157",7635.16091965217,40.7707702252517,-73.9663760711639,"864 Madison Ave","","","New York","10021","US","NY","cakeshop","Patisserie/Cake Shop"
"_DcfYjnGffQI3iP1Be0kdA","ladurée-madison-ave-new-york","Ladurée Madison Ave","https://s3-media2.fl.yelpcdn.com/bphoto/o1u9vyQXjkqzfZOVhy18mg/o.jpg",FALSE,"https://www.yelp.com/biz/ladur%C3%A9e-madison-ave-new-york?adjust_creative=seK3nYThXCT622oUlqHkLQ&utm_campaign=yelp_api_v3&utm_medium=api_v3_business_search&utm_source=seK3nYThXCT622oUlqHkLQ",1815,4.5,"$$$","+16465583157","(646) 558-3157",7635.16091965217,40.7707702252517,-73.9663760711639,"864 Madison Ave","","","New York","10021","US","NY","tea","Tea Rooms"
"j051L3Ehkt8bPrO3YnEc1Q","ample-hills-creamery-brooklyn","Ample Hills Creamery","https://s3-media4.fl.yelpcdn.com/bphoto/iKa6zSEx3_wqHjwBxjIgjw/o.jpg",FALSE,"https://www.yelp.com/biz/ample-hills-creamery-brooklyn?adjust_creative=seK3nYThXCT622oUlqHkLQ&utm_campaign=yelp_api_v3&utm_medium=api_v3_business_search&utm_source=seK3nYThXCT622oUlqHkLQ",1283,4.5,"$$","+13472403926","(347) 240-3926",3698.24067566503,40.6785573557085,-73.9684746674535,"623 Vanderbilt Ave",NA,"","Brooklyn","11238","US","NY","icecream","Ice Cream & Frozen Yogurt"
"j051L3Ehkt8bPrO3YnEc1Q","ample-hills-creamery-brooklyn","Ample Hills Creamery","https://s3-media4.fl.yelpcdn.com/bphoto/iKa6zSEx3_wqHjwBxjIgjw/o.jpg",FALSE,"https://www.yelp.com/biz/ample-hills-creamery-brooklyn?adjust_creative=seK3nYThXCT622oUlqHkLQ&utm_campaign=yelp_api_v3&utm_medium=api_v3_business_search&utm_source=seK3nYThXCT622oUlqHkLQ",1283,4.5,"$$","+13472403926","(347) 240-3926",3698.24067566503,40.6785573557085,-73.9684746674535,"623 Vanderbilt Ave",NA,"","Brooklyn","11238","US","NY","coffee","Coffee & Tea"
"j0n_poMVZnODYOFviLbh0Q","taim-west-village-new-york","Taim West Village","https://s3-media4.fl.yelpcdn.com/bphoto/FtNE-4FWqBgQtGpRJnhD2g/o.jpg",FALSE,"https://www.yelp.com/biz/taim-west-village-new-york?adjust_creative=seK3nYThXCT622oUlqHkLQ&utm_campaign=yelp_api_v3&utm_medium=api_v3_business_search&utm_source=seK3nYThXCT622oUlqHkLQ",1465,4.5,"$","+12126911287","(212) 691-1287",3458.70339273398,40.736002376347,-74.0019588366439,"222 Waverly Pl",NA,"","New York","10014","US","NY","vegetarian","Vegetarian"
"j0n_poMVZnODYOFviLbh0Q","taim-west-village-new-york","Taim West Village","https://s3-media4.fl.yelpcdn.com/bphoto/FtNE-4FWqBgQtGpRJnhD2g/o.jpg",FALSE,"https://www.yelp.com/biz/taim-west-village-new-york?adjust_creative=seK3nYThXCT622oUlqHkLQ&utm_campaign=yelp_api_v3&utm_medium=api_v3_business_search&utm_source=seK3nYThXCT622oUlqHkLQ",1465,4.5,"$","+12126911287","(212) 691-1287",3458.70339273398,40.736002376347,-74.0019588366439,"222 Waverly Pl",NA,"","New York","10014","US","NY","sandwiches","Sandwiches"
"j0n_poMVZnODYOFviLbh0Q","taim-west-village-new-york","Taim West Village","https://s3-media4.fl.yelpcdn.com/bphoto/FtNE-4FWqBgQtGpRJnhD2g/o.jpg",FALSE,"https://www.yelp.com/biz/taim-west-village-new-york?adjust_creative=seK3nYThXCT622oUlqHkLQ&utm_campaign=yelp_api_v3&utm_medium=api_v3_business_search&utm_source=seK3nYThXCT622oUlqHkLQ",1465,4.5,"$","+12126911287","(212) 691-1287",3458.70339273398,40.736002376347,-74.0019588366439,"222 Waverly Pl",NA,"","New York","10014","US","NY","falafel","Falafel"
"WG639VkTjmK5dzydd1BBJA","rubirosa-new-york-2","Rubirosa","https://s3-media4.fl.yelpcdn.com/bphoto/LuSzR8cpVQRofXOT_bMi1A/o.jpg",FALSE,"https://www.yelp.com/biz/rubirosa-new-york-2?adjust_creative=seK3nYThXCT622oUlqHkLQ&utm_campaign=yelp_api_v3&utm_medium=api_v3_business_search&utm_source=seK3nYThXCT622oUlqHkLQ",1833,4,"$$","+12129650500","(212) 965-0500",1931.26837164704,40.72275,-73.99622,"235 Mulberry St","","","New York","10012","US","NY","italian","Italian"
"WG639VkTjmK5dzydd1BBJA","rubirosa-new-york-2","Rubirosa","https://s3-media4.fl.yelpcdn.com/bphoto/LuSzR8cpVQRofXOT_bMi1A/o.jpg",FALSE,"https://www.yelp.com/biz/rubirosa-new-york-2?adjust_creative=seK3nYThXCT622oUlqHkLQ&utm_campaign=yelp_api_v3&utm_medium=api_v3_business_search&utm_source=seK3nYThXCT622oUlqHkLQ",1833,4,"$$","+12129650500","(212) 965-0500",1931.26837164704,40.72275,-73.99622,"235 Mulberry St","","","New York","10012","US","NY","pizza","Pizza"
"P4hm-IKNMbBbtfWSvPf25A","the-meatball-shop-new-york","The Meatball Shop","https://s3-media4.fl.yelpcdn.com/bphoto/tJVWQ2FY5TTT8Ks5NVCzwg/o.jpg",FALSE,"https://www.yelp.com/biz/the-meatball-shop-new-york?adjust_creative=seK3nYThXCT622oUlqHkLQ&utm_campaign=yelp_api_v3&utm_medium=api_v3_business_search&utm_source=seK3nYThXCT622oUlqHkLQ",2705,4,"$$","+12129828895","(212) 982-8895",1845.25498825789,40.7214961,-73.9887357,"84 Stanton St","","","New York","10002","US","NY","italian","Italian"
"P4hm-IKNMbBbtfWSvPf25A","the-meatball-shop-new-york","The Meatball Shop","https://s3-media4.fl.yelpcdn.com/bphoto/tJVWQ2FY5TTT8Ks5NVCzwg/o.jpg",FALSE,"https://www.yelp.com/biz/the-meatball-shop-new-york?adjust_creative=seK3nYThXCT622oUlqHkLQ&utm_campaign=yelp_api_v3&utm_medium=api_v3_business_search&utm_source=seK3nYThXCT622oUlqHkLQ",2705,4,"$$","+12129828895","(212) 982-8895",1845.25498825789,40.7214961,-73.9887357,"84 Stanton St","","","New York","10002","US","NY","tradamerican","American (Traditional)"
"uoT2_Wrt1noD6kZOID7tUg","jane-new-york-2","Jane","https://s3-media1.fl.yelpcdn.com/bphoto/Q5yrDsPb-Tb7eFQ5s_UB3w/o.jpg",FALSE,"https://www.yelp.com/biz/jane-new-york-2?adjust_creative=seK3nYThXCT622oUlqHkLQ&utm_campaign=yelp_api_v3&utm_medium=api_v3_business_search&utm_source=seK3nYThXCT622oUlqHkLQ",3009,4,"$$","+12122547000","(212) 254-7000",2489.08915836645,40.72732,-74.00026,"100 W Houston St","","","New York","10012","US","NY","breakfast_brunch","Breakfast & Brunch"
"uoT2_Wrt1noD6kZOID7tUg","jane-new-york-2","Jane","https://s3-media1.fl.yelpcdn.com/bphoto/Q5yrDsPb-Tb7eFQ5s_UB3w/o.jpg",FALSE,"https://www.yelp.com/biz/jane-new-york-2?adjust_creative=seK3nYThXCT622oUlqHkLQ&utm_campaign=yelp_api_v3&utm_medium=api_v3_business_search&utm_source=seK3nYThXCT622oUlqHkLQ",3009,4,"$$","+12122547000","(212) 254-7000",2489.08915836645,40.72732,-74.00026,"100 W Houston St","","","New York","10012","US","NY","newamerican","American (New)"
"uoT2_Wrt1noD6kZOID7tUg","jane-new-york-2","Jane","https://s3-media1.fl.yelpcdn.com/bphoto/Q5yrDsPb-Tb7eFQ5s_UB3w/o.jpg",FALSE,"https://www.yelp.com/biz/jane-new-york-2?adjust_creative=seK3nYThXCT622oUlqHkLQ&utm_campaign=yelp_api_v3&utm_medium=api_v3_business_search&utm_source=seK3nYThXCT622oUlqHkLQ",3009,4,"$$","+12122547000","(212) 254-7000",2489.08915836645,40.72732,-74.00026,"100 W Houston St","","","New York","10012","US","NY","bars","Bars"
"22nKUyCIbpnzR6R3_g1ptQ","carmines-italian-restaurant-times-square-new-york-5","Carmine's Italian Restaurant - Times Square","https://s3-media1.fl.yelpcdn.com/bphoto/0UszeEYPWI-RIk0Ak6HtVQ/o.jpg",FALSE,"https://www.yelp.com/biz/carmines-italian-restaurant-times-square-new-york-5?adjust_creative=seK3nYThXCT622oUlqHkLQ&utm_campaign=yelp_api_v3&utm_medium=api_v3_business_search&utm_source=seK3nYThXCT622oUlqHkLQ",3282,4,"$$","+12122213800","(212) 221-3800",5823.16997343495,40.7574955824307,-73.9866844540098,"200 W 44th St","","","New York","10036","US","NY","italian","Italian"
"22nKUyCIbpnzR6R3_g1ptQ","carmines-italian-restaurant-times-square-new-york-5","Carmine's Italian Restaurant - Times Square","https://s3-media1.fl.yelpcdn.com/bphoto/0UszeEYPWI-RIk0Ak6HtVQ/o.jpg",FALSE,"https://www.yelp.com/biz/carmines-italian-restaurant-times-square-new-york-5?adjust_creative=seK3nYThXCT622oUlqHkLQ&utm_campaign=yelp_api_v3&utm_medium=api_v3_business_search&utm_source=seK3nYThXCT622oUlqHkLQ",3282,4,"$$","+12122213800","(212) 221-3800",5823.16997343495,40.7574955824307,-73.9866844540098,"200 W 44th St","","","New York","10036","US","NY","catering","Caterers"
"22nKUyCIbpnzR6R3_g1ptQ","carmines-italian-restaurant-times-square-new-york-5","Carmine's Italian Restaurant - Times Square","https://s3-media1.fl.yelpcdn.com/bphoto/0UszeEYPWI-RIk0Ak6HtVQ/o.jpg",FALSE,"https://www.yelp.com/biz/carmines-italian-restaurant-times-square-new-york-5?adjust_creative=seK3nYThXCT622oUlqHkLQ&utm_campaign=yelp_api_v3&utm_medium=api_v3_business_search&utm_source=seK3nYThXCT622oUlqHkLQ",3282,4,"$$","+12122213800","(212) 221-3800",5823.16997343495,40.7574955824307,-73.9866844540098,"200 W 44th St","","","New York","10036","US","NY","venues","Venues & Event Spaces"
"7-jMpWGUxPB8EEtmoqNdqg","soft-swerve-new-york-2","Soft Swerve","https://s3-media2.fl.yelpcdn.com/bphoto/S89cEtspyXJLxNl0TSLgCQ/o.jpg",FALSE,"https://www.yelp.com/biz/soft-swerve-new-york-2?adjust_creative=seK3nYThXCT622oUlqHkLQ&utm_campaign=yelp_api_v3&utm_medium=api_v3_business_search&utm_source=seK3nYThXCT622oUlqHkLQ",1470,4.5,"$","+16464766311","(646) 476-6311",1445.39961459837,40.718223312785,-73.9911489933729,"85B Allen St","",NA,"New York","10002","US","NY","icecream","Ice Cream & Frozen Yogurt"
"KgpOYAG-r_eDsQXFXt0nnQ","balthazar-restaurant-new-york","Balthazar Restaurant","https://s3-media2.fl.yelpcdn.com/bphoto/059pBnbIE72oJcKRoaj6bg/o.jpg",FALSE,"https://www.yelp.com/biz/balthazar-restaurant-new-york?adjust_creative=seK3nYThXCT622oUlqHkLQ&utm_campaign=yelp_api_v3&utm_medium=api_v3_business_search&utm_source=seK3nYThXCT622oUlqHkLQ",2888,4,"$$$","+12129651414","(212) 965-1414",1951.95313529658,40.722730394629,-73.998330776327,"80 Spring St","","","New York","10012","US","NY","french","French"
"KgpOYAG-r_eDsQXFXt0nnQ","balthazar-restaurant-new-york","Balthazar Restaurant","https://s3-media2.fl.yelpcdn.com/bphoto/059pBnbIE72oJcKRoaj6bg/o.jpg",FALSE,"https://www.yelp.com/biz/balthazar-restaurant-new-york?adjust_creative=seK3nYThXCT622oUlqHkLQ&utm_campaign=yelp_api_v3&utm_medium=api_v3_business_search&utm_source=seK3nYThXCT622oUlqHkLQ",2888,4,"$$$","+12129651414","(212) 965-1414",1951.95313529658,40.722730394629,-73.998330776327,"80 Spring St","","","New York","10012","US","NY","breakfast_brunch","Breakfast & Brunch"
"PBUIaPtgnhmdHE3KHglK-g","jean-georges-new-york-2","Jean-Georges","https://s3-media4.fl.yelpcdn.com/bphoto/xo6V2h2p58omvg0lFJeNdQ/o.jpg",FALSE,"https://www.yelp.com/biz/jean-georges-new-york-2?adjust_creative=seK3nYThXCT622oUlqHkLQ&utm_campaign=yelp_api_v3&utm_medium=api_v3_business_search&utm_source=seK3nYThXCT622oUlqHkLQ",1802,4.5,"$$$$","+12122993900","(212) 299-3900",7161.97144212779,40.7691122743293,-73.9814290717583,"1 Central Park W","","","New York","10023","US","NY","french","French"
"PBUIaPtgnhmdHE3KHglK-g","jean-georges-new-york-2","Jean-Georges","https://s3-media4.fl.yelpcdn.com/bphoto/xo6V2h2p58omvg0lFJeNdQ/o.jpg",FALSE,"https://www.yelp.com/biz/jean-georges-new-york-2?adjust_creative=seK3nYThXCT622oUlqHkLQ&utm_campaign=yelp_api_v3&utm_medium=api_v3_business_search&utm_source=seK3nYThXCT622oUlqHkLQ",1802,4.5,"$$$$","+12122993900","(212) 299-3900",7161.97144212779,40.7691122743293,-73.9814290717583,"1 Central Park W","","","New York","10023","US","NY","newamerican","American (New)"
"PBUIaPtgnhmdHE3KHglK-g","jean-georges-new-york-2","Jean-Georges","https://s3-media4.fl.yelpcdn.com/bphoto/xo6V2h2p58omvg0lFJeNdQ/o.jpg",FALSE,"https://www.yelp.com/biz/jean-georges-new-york-2?adjust_creative=seK3nYThXCT622oUlqHkLQ&utm_campaign=yelp_api_v3&utm_medium=api_v3_business_search&utm_source=seK3nYThXCT622oUlqHkLQ",1802,4.5,"$$$$","+12122993900","(212) 299-3900",7161.97144212779,40.7691122743293,-73.9814290717583,"1 Central Park W","","","New York","10023","US","NY","asianfusion","Asian Fusion"
"fVbUVAiLiGgLA_nxBFxyww","thursday-kitchen-new-york","Thursday Kitchen","https://s3-media2.fl.yelpcdn.com/bphoto/5P_HFhM6w8cRK3IiCzrNTQ/o.jpg",FALSE,"https://www.yelp.com/biz/thursday-kitchen-new-york?adjust_creative=seK3nYThXCT622oUlqHkLQ&utm_campaign=yelp_api_v3&utm_medium=api_v3_business_search&utm_source=seK3nYThXCT622oUlqHkLQ",1111,4.5,"$$","","",2613.42601480514,40.7275,-73.9838,"424 E 9th St",NA,"","New York","10009","US","NY","korean","Korean"
"fVbUVAiLiGgLA_nxBFxyww","thursday-kitchen-new-york","Thursday Kitchen","https://s3-media2.fl.yelpcdn.com/bphoto/5P_HFhM6w8cRK3IiCzrNTQ/o.jpg",FALSE,"https://www.yelp.com/biz/thursday-kitchen-new-york?adjust_creative=seK3nYThXCT622oUlqHkLQ&utm_campaign=yelp_api_v3&utm_medium=api_v3_business_search&utm_source=seK3nYThXCT622oUlqHkLQ",1111,4.5,"$$","","",2613.42601480514,40.7275,-73.9838,"424 E 9th St",NA,"","New York","10009","US","NY","newamerican","American (New)"
"fVbUVAiLiGgLA_nxBFxyww","thursday-kitchen-new-york","Thursday Kitchen","https://s3-media2.fl.yelpcdn.com/bphoto/5P_HFhM6w8cRK3IiCzrNTQ/o.jpg",FALSE,"https://www.yelp.com/biz/thursday-kitchen-new-york?adjust_creative=seK3nYThXCT622oUlqHkLQ&utm_campaign=yelp_api_v3&utm_medium=api_v3_business_search&utm_source=seK3nYThXCT622oUlqHkLQ",1111,4.5,"$$","","",2613.42601480514,40.7275,-73.9838,"424 E 9th St",NA,"","New York","10009","US","NY","tapasmallplates","Tapas/Small Plates"
"_gzXNKarTxagBp6_PkmQKw","gotham-bar-and-grill-new-york","Gotham Bar and Grill","https://s3-media3.fl.yelpcdn.com/bphoto/MxQDr3wTFh8maAtD_4yjrw/o.jpg",FALSE,"https://www.yelp.com/biz/gotham-bar-and-grill-new-york?adjust_creative=seK3nYThXCT622oUlqHkLQ&utm_campaign=yelp_api_v3&utm_medium=api_v3_business_search&utm_source=seK3nYThXCT622oUlqHkLQ",1521,4.5,"$$$$","+12126204020","(212) 620-4020",3196.26120752675,40.734186,-73.993696,"12 E 12th St","","","New York","10003","US","NY","newamerican","American (New)"
"_gzXNKarTxagBp6_PkmQKw","gotham-bar-and-grill-new-york","Gotham Bar and Grill","https://s3-media3.fl.yelpcdn.com/bphoto/MxQDr3wTFh8maAtD_4yjrw/o.jpg",FALSE,"https://www.yelp.com/biz/gotham-bar-and-grill-new-york?adjust_creative=seK3nYThXCT622oUlqHkLQ&utm_campaign=yelp_api_v3&utm_medium=api_v3_business_search&utm_source=seK3nYThXCT622oUlqHkLQ",1521,4.5,"$$$$","+12126204020","(212) 620-4020",3196.26120752675,40.734186,-73.993696,"12 E 12th St","","","New York","10003","US","NY","bars","Bars"
"7Qvh0oFRsoqrO9qNlcMKXQ","saigon-shack-new-york","Saigon Shack","https://s3-media4.fl.yelpcdn.com/bphoto/KLTtco2fXXV847KlczGqWQ/o.jpg",FALSE,"https://www.yelp.com/biz/saigon-shack-new-york?adjust_creative=seK3nYThXCT622oUlqHkLQ&utm_campaign=yelp_api_v3&utm_medium=api_v3_business_search&utm_source=seK3nYThXCT622oUlqHkLQ",2209,4,"$","+12122280588","(212) 228-0588",2748.30472471149,40.72969,-74.000629,"114 Macdougal St","","","New York","10012","US","NY","sandwiches","Sandwiches"
"7Qvh0oFRsoqrO9qNlcMKXQ","saigon-shack-new-york","Saigon Shack","https://s3-media4.fl.yelpcdn.com/bphoto/KLTtco2fXXV847KlczGqWQ/o.jpg",FALSE,"https://www.yelp.com/biz/saigon-shack-new-york?adjust_creative=seK3nYThXCT622oUlqHkLQ&utm_campaign=yelp_api_v3&utm_medium=api_v3_business_search&utm_source=seK3nYThXCT622oUlqHkLQ",2209,4,"$","+12122280588","(212) 228-0588",2748.30472471149,40.72969,-74.000629,"114 Macdougal St","","","New York","10012","US","NY","coffee","Coffee & Tea"
"7Qvh0oFRsoqrO9qNlcMKXQ","saigon-shack-new-york","Saigon Shack","https://s3-media4.fl.yelpcdn.com/bphoto/KLTtco2fXXV847KlczGqWQ/o.jpg",FALSE,"https://www.yelp.com/biz/saigon-shack-new-york?adjust_creative=seK3nYThXCT622oUlqHkLQ&utm_campaign=yelp_api_v3&utm_medium=api_v3_business_search&utm_source=seK3nYThXCT622oUlqHkLQ",2209,4,"$","+12122280588","(212) 228-0588",2748.30472471149,40.72969,-74.000629,"114 Macdougal St","","","New York","10012","US","NY","salad","Salad"
"pQuZDnefX038xurT1BhDXA","keens-steakhouse-new-york","Keens Steakhouse","https://s3-media1.fl.yelpcdn.com/bphoto/6GVHwzwIEGh7eSICZ08s8w/o.jpg",FALSE,"https://www.yelp.com/biz/keens-steakhouse-new-york?adjust_creative=seK3nYThXCT622oUlqHkLQ&utm_campaign=yelp_api_v3&utm_medium=api_v3_business_search&utm_source=seK3nYThXCT622oUlqHkLQ",2322,4,"$$$$","+12129473636","(212) 947-3636",5071.68903648954,40.75071,-73.98652,"72 W 36th St","","","New York","10018","US","NY","steak","Steakhouses"
"pQuZDnefX038xurT1BhDXA","keens-steakhouse-new-york","Keens Steakhouse","https://s3-media1.fl.yelpcdn.com/bphoto/6GVHwzwIEGh7eSICZ08s8w/o.jpg",FALSE,"https://www.yelp.com/biz/keens-steakhouse-new-york?adjust_creative=seK3nYThXCT622oUlqHkLQ&utm_campaign=yelp_api_v3&utm_medium=api_v3_business_search&utm_source=seK3nYThXCT622oUlqHkLQ",2322,4,"$$$$","+12129473636","(212) 947-3636",5071.68903648954,40.75071,-73.98652,"72 W 36th St","","","New York","10018","US","NY","desserts","Desserts"
"pQuZDnefX038xurT1BhDXA","keens-steakhouse-new-york","Keens Steakhouse","https://s3-media1.fl.yelpcdn.com/bphoto/6GVHwzwIEGh7eSICZ08s8w/o.jpg",FALSE,"https://www.yelp.com/biz/keens-steakhouse-new-york?adjust_creative=seK3nYThXCT622oUlqHkLQ&utm_campaign=yelp_api_v3&utm_medium=api_v3_business_search&utm_source=seK3nYThXCT622oUlqHkLQ",2322,4,"$$$$","+12129473636","(212) 947-3636",5071.68903648954,40.75071,-73.98652,"72 W 36th St","","","New York","10018","US","NY","pubs","Pubs"
"MhceeLrM2_3mcKw5EGLY6A","pure-thai-cookhouse-new-york","Pure Thai Cookhouse","https://s3-media2.fl.yelpcdn.com/bphoto/18R0L7QWSFGw_KggdbZPmw/o.jpg",FALSE,"https://www.yelp.com/biz/pure-thai-cookhouse-new-york?adjust_creative=seK3nYThXCT622oUlqHkLQ&utm_campaign=yelp_api_v3&utm_medium=api_v3_business_search&utm_source=seK3nYThXCT622oUlqHkLQ",2346,4,"$$","+12125810999","(212) 581-0999",6563.76500909469,40.764291,-73.988159,"766 9th Ave","","","New York","10019","US","NY","thai","Thai"
"MhceeLrM2_3mcKw5EGLY6A","pure-thai-cookhouse-new-york","Pure Thai Cookhouse","https://s3-media2.fl.yelpcdn.com/bphoto/18R0L7QWSFGw_KggdbZPmw/o.jpg",FALSE,"https://www.yelp.com/biz/pure-thai-cookhouse-new-york?adjust_creative=seK3nYThXCT622oUlqHkLQ&utm_campaign=yelp_api_v3&utm_medium=api_v3_business_search&utm_source=seK3nYThXCT622oUlqHkLQ",2346,4,"$$","+12125810999","(212) 581-0999",6563.76500909469,40.764291,-73.988159,"766 9th Ave","","","New York","10019","US","NY","noodles","Noodles"
"MhceeLrM2_3mcKw5EGLY6A","pure-thai-cookhouse-new-york","Pure Thai Cookhouse","https://s3-media2.fl.yelpcdn.com/bphoto/18R0L7QWSFGw_KggdbZPmw/o.jpg",FALSE,"https://www.yelp.com/biz/pure-thai-cookhouse-new-york?adjust_creative=seK3nYThXCT622oUlqHkLQ&utm_campaign=yelp_api_v3&utm_medium=api_v3_business_search&utm_source=seK3nYThXCT622oUlqHkLQ",2346,4,"$$","+12125810999","(212) 581-0999",6563.76500909469,40.764291,-73.988159,"766 9th Ave","","","New York","10019","US","NY","chicken_wings","Chicken Wings"
"FiRB9Ek3Xo9JHwXgBYITYg","la-sirene-new-york","La Sirene","https://s3-media4.fl.yelpcdn.com/bphoto/RsDpYmM0azJa4f7cot5Z0g/o.jpg",FALSE,"https://www.yelp.com/biz/la-sirene-new-york?adjust_creative=seK3nYThXCT622oUlqHkLQ&utm_campaign=yelp_api_v3&utm_medium=api_v3_business_search&utm_source=seK3nYThXCT622oUlqHkLQ",1555,4.5,"$$$","+12129253061","(212) 925-3061",2313.30194809878,40.7243642217227,-74.005708694458,"558 Broome St","","","New York","10013","US","NY","french","French"
"X8ZS-dgiMIJvhwf9SaDnjw","wah-fung-no-1-fast-food-new-york-3","Wah Fung No 1 Fast Food","https://s3-media3.fl.yelpcdn.com/bphoto/y90HXuKlFmHl42ZNrL8q1A/o.jpg",FALSE,"https://www.yelp.com/biz/wah-fung-no-1-fast-food-new-york-3?adjust_creative=seK3nYThXCT622oUlqHkLQ&utm_campaign=yelp_api_v3&utm_medium=api_v3_business_search&utm_source=seK3nYThXCT622oUlqHkLQ",1133,4.5,"$","+12129255175","(212) 925-5175",1323.28518070673,40.71735,-73.99457,"79 Chrystie St","","","New York","10002","US","NY","chinese","Chinese"
"X8ZS-dgiMIJvhwf9SaDnjw","wah-fung-no-1-fast-food-new-york-3","Wah Fung No 1 Fast Food","https://s3-media3.fl.yelpcdn.com/bphoto/y90HXuKlFmHl42ZNrL8q1A/o.jpg",FALSE,"https://www.yelp.com/biz/wah-fung-no-1-fast-food-new-york-3?adjust_creative=seK3nYThXCT622oUlqHkLQ&utm_campaign=yelp_api_v3&utm_medium=api_v3_business_search&utm_source=seK3nYThXCT622oUlqHkLQ",1133,4.5,"$","+12129255175","(212) 925-5175",1323.28518070673,40.71735,-73.99457,"79 Chrystie St","","","New York","10002","US","NY","hotdogs","Fast Food"
"X8ZS-dgiMIJvhwf9SaDnjw","wah-fung-no-1-fast-food-new-york-3","Wah Fung No 1 Fast Food","https://s3-media3.fl.yelpcdn.com/bphoto/y90HXuKlFmHl42ZNrL8q1A/o.jpg",FALSE,"https://www.yelp.com/biz/wah-fung-no-1-fast-food-new-york-3?adjust_creative=seK3nYThXCT622oUlqHkLQ&utm_campaign=yelp_api_v3&utm_medium=api_v3_business_search&utm_source=seK3nYThXCT622oUlqHkLQ",1133,4.5,"$","+12129255175","(212) 925-5175",1323.28518070673,40.71735,-73.99457,"79 Chrystie St","","","New York","10002","US","NY","noodles","Noodles"
"2ggi1luerd3Mf_C82JvCYg","grimaldis-brooklyn-4","Grimaldi's","https://s3-media3.fl.yelpcdn.com/bphoto/-j-vYFV9Yx5dkS1u8-BY1A/o.jpg",FALSE,"https://www.yelp.com/biz/grimaldis-brooklyn-4?adjust_creative=seK3nYThXCT622oUlqHkLQ&utm_campaign=yelp_api_v3&utm_medium=api_v3_business_search&utm_source=seK3nYThXCT622oUlqHkLQ",4448,3.5,"$$","+17188584300","(718) 858-4300",331.655923063337,40.7025694629739,-73.993247611872,"1 Front St","","","Brooklyn","11201","US","NY","pizza","Pizza"
"7EaiwMVaNdQibSs0yYkE5Q","sushi-yasuda-new-york","Sushi Yasuda","https://s3-media1.fl.yelpcdn.com/bphoto/z6GvhobHxGaKtpfXBFd5Lg/o.jpg",FALSE,"https://www.yelp.com/biz/sushi-yasuda-new-york?adjust_creative=seK3nYThXCT622oUlqHkLQ&utm_campaign=yelp_api_v3&utm_medium=api_v3_business_search&utm_source=seK3nYThXCT622oUlqHkLQ",2032,4,"$$$$","+12129721001","(212) 972-1001",5372.33616036102,40.75113,-73.97347,"204 E 43rd St","","","New York","10017","US","NY","japanese","Japanese"
"MfbVI5reXLIIs8Cc2HwgQw","breakroom-new-york","Breakroom","https://s3-media2.fl.yelpcdn.com/bphoto/l-b4gVi5G7xOBQ60QdctVA/o.jpg",FALSE,"https://www.yelp.com/biz/breakroom-new-york?adjust_creative=seK3nYThXCT622oUlqHkLQ&utm_campaign=yelp_api_v3&utm_medium=api_v3_business_search&utm_source=seK3nYThXCT622oUlqHkLQ",1482,4.5,"$$","+12122272802","(212) 227-2802",1338.1149425862,40.7166907225542,-73.9999440120647,"83 Baxter St","","","New York","10013","US","NY","burgers","Burgers"
"MfbVI5reXLIIs8Cc2HwgQw","breakroom-new-york","Breakroom","https://s3-media2.fl.yelpcdn.com/bphoto/l-b4gVi5G7xOBQ60QdctVA/o.jpg",FALSE,"https://www.yelp.com/biz/breakroom-new-york?adjust_creative=seK3nYThXCT622oUlqHkLQ&utm_campaign=yelp_api_v3&utm_medium=api_v3_business_search&utm_source=seK3nYThXCT622oUlqHkLQ",1482,4.5,"$$","+12122272802","(212) 227-2802",1338.1149425862,40.7166907225542,-73.9999440120647,"83 Baxter St","","","New York","10013","US","NY","tacos","Tacos"
"QArou0r7CmLNPWYRA9ecog","mcsorleys-old-ale-house-new-york","McSorleys Old Ale House","https://s3-media4.fl.yelpcdn.com/bphoto/rMVnbtW504_4qK93_9Fy9w/o.jpg",FALSE,"https://www.yelp.com/biz/mcsorleys-old-ale-house-new-york?adjust_creative=seK3nYThXCT622oUlqHkLQ&utm_campaign=yelp_api_v3&utm_medium=api_v3_business_search&utm_source=seK3nYThXCT622oUlqHkLQ",1684,4,"$","+12124739148","(212) 473-9148",2627.52176975949,40.72884,-73.98965,"15 E 7th St","","","New York","10003","US","NY","divebars","Dive Bars"
"QArou0r7CmLNPWYRA9ecog","mcsorleys-old-ale-house-new-york","McSorleys Old Ale House","https://s3-media4.fl.yelpcdn.com/bphoto/rMVnbtW504_4qK93_9Fy9w/o.jpg",FALSE,"https://www.yelp.com/biz/mcsorleys-old-ale-house-new-york?adjust_creative=seK3nYThXCT622oUlqHkLQ&utm_campaign=yelp_api_v3&utm_medium=api_v3_business_search&utm_source=seK3nYThXCT622oUlqHkLQ",1684,4,"$","+12124739148","(212) 473-9148",2627.52176975949,40.72884,-73.98965,"15 E 7th St","","","New York","10003","US","NY","breweries","Breweries"
"QArou0r7CmLNPWYRA9ecog","mcsorleys-old-ale-house-new-york","McSorleys Old Ale House","https://s3-media4.fl.yelpcdn.com/bphoto/rMVnbtW504_4qK93_9Fy9w/o.jpg",FALSE,"https://www.yelp.com/biz/mcsorleys-old-ale-house-new-york?adjust_creative=seK3nYThXCT622oUlqHkLQ&utm_campaign=yelp_api_v3&utm_medium=api_v3_business_search&utm_source=seK3nYThXCT622oUlqHkLQ",1684,4,"$","+12124739148","(212) 473-9148",2627.52176975949,40.72884,-73.98965,"15 E 7th St","","","New York","10003","US","NY","beerbar","Beer Bar"
"wGFSTTB6b4MHJJUzBnVJeg","top-thai-greenwich-new-york","Top Thai Greenwich","https://s3-media2.fl.yelpcdn.com/bphoto/LgDOyI3FRn9HDxHJKdAayg/o.jpg",FALSE,"https://www.yelp.com/biz/top-thai-greenwich-new-york?adjust_creative=seK3nYThXCT622oUlqHkLQ&utm_campaign=yelp_api_v3&utm_medium=api_v3_business_search&utm_source=seK3nYThXCT622oUlqHkLQ",1021,4.5,"$$","+16467264418","(646) 726-4418",2739.48977314103,40.72977,-73.99939,"235 Sullivan St","",NA,"New York","10012","US","NY","thai","Thai"
"wGFSTTB6b4MHJJUzBnVJeg","top-thai-greenwich-new-york","Top Thai Greenwich","https://s3-media2.fl.yelpcdn.com/bphoto/LgDOyI3FRn9HDxHJKdAayg/o.jpg",FALSE,"https://www.yelp.com/biz/top-thai-greenwich-new-york?adjust_creative=seK3nYThXCT622oUlqHkLQ&utm_campaign=yelp_api_v3&utm_medium=api_v3_business_search&utm_source=seK3nYThXCT622oUlqHkLQ",1021,4.5,"$$","+16467264418","(646) 726-4418",2739.48977314103,40.72977,-73.99939,"235 Sullivan St","",NA,"New York","10012","US","NY","cocktailbars","Cocktail Bars"
"wGFSTTB6b4MHJJUzBnVJeg","top-thai-greenwich-new-york","Top Thai Greenwich","https://s3-media2.fl.yelpcdn.com/bphoto/LgDOyI3FRn9HDxHJKdAayg/o.jpg",FALSE,"https://www.yelp.com/biz/top-thai-greenwich-new-york?adjust_creative=seK3nYThXCT622oUlqHkLQ&utm_campaign=yelp_api_v3&utm_medium=api_v3_business_search&utm_source=seK3nYThXCT622oUlqHkLQ",1021,4.5,"$$","+16467264418","(646) 726-4418",2739.48977314103,40.72977,-73.99939,"235 Sullivan St","",NA,"New York","10012","US","NY","halal","Halal"
"c3eMI4_o4dPDDhPV_ibBYQ","ess-a-bagel-new-york","Ess-a-Bagel","https://s3-media1.fl.yelpcdn.com/bphoto/yt3JyNOwoSOmeyPXza6O7w/o.jpg",FALSE,"https://www.yelp.com/biz/ess-a-bagel-new-york?adjust_creative=seK3nYThXCT622oUlqHkLQ&utm_campaign=yelp_api_v3&utm_medium=api_v3_business_search&utm_source=seK3nYThXCT622oUlqHkLQ",3135,4,"$","+12129801010","(212) 980-1010",6003.43303666911,40.756300559255,-73.9703701025162,"831 3rd Ave","","","New York","10022","US","NY","bakeries","Bakeries"
"c3eMI4_o4dPDDhPV_ibBYQ","ess-a-bagel-new-york","Ess-a-Bagel","https://s3-media1.fl.yelpcdn.com/bphoto/yt3JyNOwoSOmeyPXza6O7w/o.jpg",FALSE,"https://www.yelp.com/biz/ess-a-bagel-new-york?adjust_creative=seK3nYThXCT622oUlqHkLQ&utm_campaign=yelp_api_v3&utm_medium=api_v3_business_search&utm_source=seK3nYThXCT622oUlqHkLQ",3135,4,"$","+12129801010","(212) 980-1010",6003.43303666911,40.756300559255,-73.9703701025162,"831 3rd Ave","","","New York","10022","US","NY","bagels","Bagels"
"c3eMI4_o4dPDDhPV_ibBYQ","ess-a-bagel-new-york","Ess-a-Bagel","https://s3-media1.fl.yelpcdn.com/bphoto/yt3JyNOwoSOmeyPXza6O7w/o.jpg",FALSE,"https://www.yelp.com/biz/ess-a-bagel-new-york?adjust_creative=seK3nYThXCT622oUlqHkLQ&utm_campaign=yelp_api_v3&utm_medium=api_v3_business_search&utm_source=seK3nYThXCT622oUlqHkLQ",3135,4,"$","+12129801010","(212) 980-1010",6003.43303666911,40.756300559255,-73.9703701025162,"831 3rd Ave","","","New York","10022","US","NY","delis","Delis"
"uc5qQMzs96rzjK27epDCug","joes-pizza-new-york-4","Joe's Pizza","https://s3-media2.fl.yelpcdn.com/bphoto/FhbFkrh_3TrAOZvoWTyOJA/o.jpg",FALSE,"https://www.yelp.com/biz/joes-pizza-new-york-4?adjust_creative=seK3nYThXCT622oUlqHkLQ&utm_campaign=yelp_api_v3&utm_medium=api_v3_business_search&utm_source=seK3nYThXCT622oUlqHkLQ",2191,4,"$","+12123661182","(212) 366-1182",2873.55322313994,40.7305599,-74.0021299,"7 Carmine St","","","New York","10014","US","NY","pizza","Pizza"
"MKYhiSeXjahxh9O4Gqnimw","grace-street-new-york","Grace Street","https://s3-media3.fl.yelpcdn.com/bphoto/-Fa8jLXSUfiT2p4LmHTNEg/o.jpg",FALSE,"https://www.yelp.com/biz/grace-street-new-york?adjust_creative=seK3nYThXCT622oUlqHkLQ&utm_campaign=yelp_api_v3&utm_medium=api_v3_business_search&utm_source=seK3nYThXCT622oUlqHkLQ",1974,4,"$$","+19177452125","(917) 745-2125",4760.90425385442,40.7478576793883,-73.9865590631962,"17 W 32nd St",NA,"","New York","10001","US","NY","coffee","Coffee & Tea"
"MKYhiSeXjahxh9O4Gqnimw","grace-street-new-york","Grace Street","https://s3-media3.fl.yelpcdn.com/bphoto/-Fa8jLXSUfiT2p4LmHTNEg/o.jpg",FALSE,"https://www.yelp.com/biz/grace-street-new-york?adjust_creative=seK3nYThXCT622oUlqHkLQ&utm_campaign=yelp_api_v3&utm_medium=api_v3_business_search&utm_source=seK3nYThXCT622oUlqHkLQ",1974,4,"$$","+19177452125","(917) 745-2125",4760.90425385442,40.7478576793883,-73.9865590631962,"17 W 32nd St",NA,"","New York","10001","US","NY","desserts","Desserts"
"MKYhiSeXjahxh9O4Gqnimw","grace-street-new-york","Grace Street","https://s3-media3.fl.yelpcdn.com/bphoto/-Fa8jLXSUfiT2p4LmHTNEg/o.jpg",FALSE,"https://www.yelp.com/biz/grace-street-new-york?adjust_creative=seK3nYThXCT622oUlqHkLQ&utm_campaign=yelp_api_v3&utm_medium=api_v3_business_search&utm_source=seK3nYThXCT622oUlqHkLQ",1974,4,"$$","+19177452125","(917) 745-2125",4760.90425385442,40.7478576793883,-73.9865590631962,"17 W 32nd St",NA,"","New York","10001","US","NY","shavedice","Shaved Ice"
"TPBTUvbBVUfJeEWWy1o1QQ","sundaes-and-cones-new-york","Sundaes and Cones","https://s3-media2.fl.yelpcdn.com/bphoto/U0yVV0UUW-nNSbn4UPVK6g/o.jpg",FALSE,"https://www.yelp.com/biz/sundaes-and-cones-new-york?adjust_creative=seK3nYThXCT622oUlqHkLQ&utm_campaign=yelp_api_v3&utm_medium=api_v3_business_search&utm_source=seK3nYThXCT622oUlqHkLQ",1420,4.5,"$","+12129799398","(212) 979-9398",2865.1069731948,40.730934,-73.989318,"95 E 10th St","","","New York","10003","US","NY","icecream","Ice Cream & Frozen Yogurt"
"TPBTUvbBVUfJeEWWy1o1QQ","sundaes-and-cones-new-york","Sundaes and Cones","https://s3-media2.fl.yelpcdn.com/bphoto/U0yVV0UUW-nNSbn4UPVK6g/o.jpg",FALSE,"https://www.yelp.com/biz/sundaes-and-cones-new-york?adjust_creative=seK3nYThXCT622oUlqHkLQ&utm_campaign=yelp_api_v3&utm_medium=api_v3_business_search&utm_source=seK3nYThXCT622oUlqHkLQ",1420,4.5,"$","+12129799398","(212) 979-9398",2865.1069731948,40.730934,-73.989318,"95 E 10th St","","","New York","10003","US","NY","bakeries","Bakeries"
"raqwXUBlnc0e8c7CYmxEJQ","scarpetta-new-york","Scarpetta","https://s3-media1.fl.yelpcdn.com/bphoto/MuSpWrm8AmcalPlKf9gBQg/o.jpg",FALSE,"https://www.yelp.com/biz/scarpetta-new-york?adjust_creative=seK3nYThXCT622oUlqHkLQ&utm_campaign=yelp_api_v3&utm_medium=api_v3_business_search&utm_source=seK3nYThXCT622oUlqHkLQ",1765,4,"$$$","+12126910555","(212) 691-0555",4405.06941872545,40.744509,-73.9856,"88 Madison Ave","","","New York","10016","US","NY","italian","Italian"
"FhXjAc6nKLf414KxYujUHw","robertas-brooklyn-2","Roberta's","https://s3-media4.fl.yelpcdn.com/bphoto/xRNPKIfF2Gr02zBiBl3dSA/o.jpg",FALSE,"https://www.yelp.com/biz/robertas-brooklyn-2?adjust_creative=seK3nYThXCT622oUlqHkLQ&utm_campaign=yelp_api_v3&utm_medium=api_v3_business_search&utm_source=seK3nYThXCT622oUlqHkLQ",2603,4,"$$","+17184171118","(718) 417-1118",5118.69059214789,40.705043534338,-73.93357123374,"261 Moore St","","","Brooklyn","11206","US","NY","pizza","Pizza"
